;time;Autopilot state;Autopilot course;Port telegraph order;Starboard telegraph order;Port rudder order;Starboard rudder order;Starboard rudder angle;Bow thruster power order;Stern thruster power order;Distance made Good;Water depth (echo-sounder);Draft at ship bow;Draft at ship stern;Under keel clearance fwd;Under keel clearance aft;Current speed;Current direction;True wind speed;True wind direction;Relative wind speed;Relative wind direction;Significant wave height;Wave direction;Longitudinal speed through the water;Transverse speed through the water;Longitudinal speed;Transverse speed;Drift angle;Surge;Surge speed;Sway;Sway speed;Heave;Heave speed;Yaw angle;Yaw rate;Roll angle;Roll rate;Pitch angle;Pitch rate;Height above the water;Latitude;Longitude;COG;SOG;Log;Set;Drift;Transverse speed at ship's bow;Transverse speed at ship's stern;Port rudder angle;Rate of turn;Port engine RPM;Starboard engine RPM;Port propeller pitch;Starboard propeller pitch;Bow thruster gained power;Stern thruster gained power;Heading;Wind effect. Longitudinal force;Wind effect. Lateral force;Wind effect. Pitching moment;Hydrodynamics. Longitudinal force;Hydrodynamics. Lateral force;Hydrodynamics. Pitching moment;Wave effect. Longitudinal force;Wave effect. Lateral force;Wave effect. Pitching moment;Ship-Bank interaction. Longitudinal force;Ship-Bank interaction. Lateral force;Ship-Bank interaction. Pitching moment;Fender. Longitudinal force;Fender. Lateral force;Fender. Pitching moment;Total force from all the mooring lines. Longitudinal force;Total force from all the mooring lines. Lateral force;Total force from all the mooring lines. Pitching moment;Port anchor. Longitudinal force;Port anchor. Lateral force;Port anchor. Pitching moment;Starboard anchor. Longitudinal force;Starboard anchor. Lateral force;Starboard anchor. Pitching moment;Ship-Ship interaction. Longitudinal force;Ship-Ship interaction. Lateral force;Ship-Ship interaction. Pitching moment;Propeller. Longitudal force;Propeller. Lateral force;Propeller. Pitching moment;Bow thruster. Longitudinal force;Bow thruster. Lateral force;Bow thruster. Pitching moment;Stern thruster. Longitudinal force;Stern thruster. Lateral force;Stern thruster. Pitching moment;Rudders (all). Longitudal force;Rudders (all). Lateral force;Rudders (all). Pitching moment;ALPHA Ship state;ALPHA Heading;ALPHA Latitude;ALPHA Longitude;CHARLIE Ship state;CHARLIE Heading;CHARLIE Latitude;CHARLIE Longitude;BRAVO Ship state;BRAVO Heading;BRAVO Latitude;BRAVO Longitude
0;00:00:00;Off;259.00;70.0;70.0;0.00;0.00;0.00;0.0;0.0;3.00;0.00;0.00;0.00;0.00;0.00;0.00;0.00;0.00;0.00;0.00;0.00;0.00;0.00;-0.01;7.83;7.83;-0.01;0.00;0.00;0.00;0.00;0.00;0.00;0.00;0.00;0.0;359.96;-1.4;359.95;-0.0;-0.17;57.682758;11.832777;258.92;7.83;7.83;169.02;0.01;-0.01;-0.01;0.00;0.0;104.0;105.0;95.0;95.0;0.0;0.0;259.00;0.00;0.00;0.00;0.00;0.00;0.00;0.00;0.00;0.00;0.00;0.00;0.00;0.00;0.00;0.00;0.00;0.00;0.00;0.00;0.00;0.00;0.00;0.00;0.00;0.00;0.00;0.00;0.00;0.00;0.00;0.00;0.00;0.00;0.00;0.00;0.00;0.00;0.00;0.00;Running;263.00;57.678789;11.783547;Running;259.00;57.682758;11.832777;Running;32.00;57.573749;11.627251
1;00:00:01;On;259.00;70.0;70.0;0.00;0.00;0.00;0.0;0.0;11.00;14.70;6.89;6.76;7.81;7.94;0.00;0.00;1.03;0.00;7.70;7.50;0.10;0.00;-0.01;7.83;7.83;-0.01;0.06;1.66;0.00;-0.00;0.00;0.00;0.00;0.00;0.0;359.95;-1.0;359.96;1.4;-0.17;57.682746;11.832667;258.93;7.83;7.83;169.01;0.01;-0.01;-0.01;0.00;0.0;105.0;105.0;95.0;95.0;0.0;0.0;259.00;-2.91;-2.30;-60.12;-80.16;1.43;18.14;-0.00;0.00;0.00;0.00;-0.02;-3.53;0.00;0.00;0.00;0.00;0.00;0.00;0.00;0.00;0.00;0.00;0.00;0.00;0.00;0.00;0.00;74.36;0.00;-0.70;0.00;0.00;0.00;0.00;0.00;0.00;-1.56;-0.00;0.35;Running;263.00;57.678782;11.783441;Running;259.00;57.682746;11.832667;Running;32.00;57.573801;11.627311
2;00:00:02;On;259.00;70.0;70.0;0.00;0.00;0.00;0.0;0.0;19.00;14.70;6.85;6.78;7.85;7.92;0.00;0.00;1.03;0.00;7.70;7.50;0.10;0.00;-0.01;7.83;7.83;-0.01;0.08;4.43;-0.00;-0.01;-0.00;0.01;0.01;0.00;0.0;359.93;-0.5;359.98;1.8;-0.16;57.682733;11.832537;258.92;7.83;7.83;169.00;0.01;-0.01;-0.01;0.00;0.0;106.0;106.0;95.0;95.0;0.0;0.0;259.00;-2.91;-2.30;-60.00;-80.10;1.72;13.30;-0.00;0.00;0.00;0.00;-0.01;-3.38;0.00;0.00;0.00;0.00;0.00;0.00;0.00;0.00;0.00;0.00;0.00;0.00;0.00;0.00;0.00;76.52;0.00;-0.67;0.00;0.00;0.00;0.00;0.00;0.00;-1.56;0.01;-0.98;Running;263.00;57.678774;11.783317;Running;259.00;57.682733;11.832537;Running;32.00;57.573862;11.627382
3;00:00:03;On;259.00;70.0;70.0;0.00;0.00;0.00;0.0;0.0;27.00;14.70;6.81;6.80;7.89;7.90;0.00;0.00;1.03;0.00;7.69;7.50;0.10;0.00;-0.01;7.82;7.82;-0.01;0.09;5.44;-0.00;-0.01;-0.00;0.01;0.01;0.00;0.0;359.93;-0.2;0.01;1.1;-0.15;57.682719;11.832408;258.91;7.82;7.82;169.00;0.01;-0.01;-0.01;0.00;0.1;107.0;107.0;95.0;95.0;0.0;0.0;259.00;-2.90;-2.30;-59.89;-79.98;1.94;6.60;0.01;0.00;0.00;0.00;-0.01;-3.43;0.00;0.00;0.00;0.00;0.00;0.00;0.00;0.00;0.00;0.00;0.00;0.00;0.00;0.00;0.00;79.71;0.00;-0.65;0.00;0.00;0.00;0.00;0.00;0.00;-1.56;0.05;-3.94;Running;263.00;57.678766;11.783193;Running;259.00;57.682719;11.832408;Running;31.98;57.573923;11.627453
4;00:00:04;On;259.00;70.0;70.0;0.00;0.00;0.00;0.0;0.0;35.00;14.70;6.79;6.83;7.91;7.87;0.00;0.00;1.03;0.00;7.69;7.50;0.10;0.00;-0.01;7.82;7.82;-0.01;0.10;5.81;-0.01;-0.01;-0.00;-0.00;-0.02;0.00;0.0;359.93;0.0;0.02;0.1;-0.16;57.682706;11.832279;258.91;7.82;7.82;169.00;0.01;-0.01;-0.02;0.00;0.1;107.0;107.0;95.0;95.0;0.0;0.0;259.00;-2.90;-2.29;-59.79;-79.83;2.10;-0.68;-0.00;0.00;0.00;0.00;0.00;-3.49;0.00;0.00;0.00;0.00;0.00;0.00;0.00;0.00;0.00;0.00;0.00;0.00;0.00;0.00;0.00;82.84;0.00;-0.64;0.00;0.00;0.00;0.00;0.00;0.00;-1.56;0.10;-7.51;Running;262.99;57.678758;11.78307;Running;259.00;57.682706;11.832279;Running;31.95;57.573983;11.627525
5;00:00:05;On;259.00;70.0;70.0;0.00;0.00;0.00;0.0;0.0;42.00;14.70;6.80;6.84;7.90;7.86;0.00;0.00;1.03;0.00;7.68;7.40;0.10;0.00;-0.01;7.81;7.81;-0.01;0.10;5.95;-0.01;-0.01;-0.00;-0.01;-0.01;0.00;0.0;359.93;0.3;0.01;-0.9;-0.17;57.682692;11.832149;258.90;7.81;7.81;169.01;0.01;-0.01;-0.02;0.00;0.1;108.0;108.0;95.0;95.0;0.0;0.0;259.00;-2.90;-2.29;-59.73;-79.73;2.21;-7.78;-0.00;0.00;0.00;0.00;0.01;-3.54;0.00;0.00;0.00;0.00;0.00;0.00;0.00;0.00;0.00;0.00;0.00;0.00;0.00;0.00;0.00;85.34;0.00;-0.62;0.00;0.00;0.00;0.00;0.00;0.00;-1.56;0.15;-11.30;Running;262.99;57.67875;11.782946;Running;259.00;57.682692;11.832149;Running;31.88;57.574044;11.627597
6;00:00:06;On;259.00;70.0;70.0;0.00;0.00;0.00;0.0;0.0;50.00;14.70;6.81;6.82;7.89;7.88;0.00;0.00;1.03;0.00;7.68;7.40;0.10;0.00;-0.01;7.82;7.82;-0.01;0.10;6.00;-0.01;-0.01;-0.00;-0.00;0.01;0.01;0.0;359.93;0.2;0.00;-1.0;-0.16;57.682679;11.83202;258.90;7.82;7.82;169.01;0.01;-0.01;-0.02;0.00;0.1;108.0;108.0;95.0;95.0;0.0;0.0;259.01;-2.90;-2.29;-59.70;-79.72;2.26;-14.12;0.01;0.00;0.00;0.00;0.02;-3.54;0.00;0.00;0.00;0.00;0.00;0.00;0.00;0.00;0.00;0.00;0.00;0.00;0.00;0.00;0.00;86.81;0.00;-0.60;0.00;0.00;0.00;0.00;0.00;0.00;-1.56;0.19;-14.97;Running;262.99;57.678742;11.782822;Running;259.01;57.682679;11.83202;Running;31.79;57.574105;11.627669
7;00:00:07;On;259.00;70.0;70.0;0.00;0.00;0.00;0.0;0.0;58.00;14.70;6.82;6.79;7.88;7.91;0.00;0.00;1.03;0.00;7.69;7.40;0.10;0.00;-0.01;7.82;7.82;-0.01;0.10;6.01;-0.00;-0.01;-0.00;0.01;0.01;0.01;0.0;359.93;0.2;359.99;-0.6;-0.15;57.682665;11.831891;258.91;7.82;7.82;169.01;0.01;-0.01;-0.02;0.00;0.1;109.0;109.0;95.0;95.0;0.0;0.0;259.01;-2.90;-2.29;-59.71;-79.78;2.29;-19.16;-0.01;0.00;0.00;0.00;0.03;-4.30;0.00;0.00;0.00;0.00;0.00;0.00;0.00;0.00;0.00;0.00;0.00;0.00;0.00;0.00;0.00;87.84;0.00;-0.59;0.00;0.00;0.00;0.00;0.00;0.00;-1.56;0.24;-18.27;Running;262.99;57.678733;11.782698;Running;259.01;57.682665;11.831891;Running;31.67;57.574166;11.627741
8;00:00:08;On;259.00;70.0;70.0;0.00;0.00;0.00;0.0;0.0;66.00;14.70;6.83;6.78;7.87;7.92;0.00;0.00;1.03;0.00;7.69;7.40;0.10;0.00;-0.01;7.82;7.82;-0.01;0.10;6.02;-0.00;-0.01;-0.00;0.00;-0.01;0.01;0.0;359.94;0.2;359.98;-0.1;-0.16;57.682652;11.831761;258.91;7.82;7.82;169.01;0.01;-0.01;-0.02;0.00;0.2;109.0;109.0;95.0;95.0;0.0;0.0;259.01;-2.90;-2.29;-59.73;-79.89;2.30;-22.74;0.01;0.00;0.00;0.00;0.02;-4.15;0.00;0.00;0.00;0.00;0.00;0.00;0.00;0.00;0.00;0.00;0.00;0.00;0.00;0.00;0.00;88.64;0.00;-0.57;0.00;0.00;0.00;0.00;0.00;0.00;-1.56;0.28;-21.34;Running;262.99;57.678725;11.782575;Running;259.01;57.682652;11.831761;Running;31.53;57.574228;11.627813
9;00:00:09;On;259.00;70.0;70.0;0.00;0.00;0.00;0.0;0.0;74.00;14.70;6.85;6.80;7.85;7.90;0.00;0.00;1.03;0.00;7.69;7.40;0.10;0.00;-0.01;7.83;7.83;-0.01;0.10;6.03;0.00;-0.01;-0.00;-0.01;-0.02;0.01;0.0;359.94;0.1;359.98;0.4;-0.17;57.682638;11.831632;258.91;7.83;7.83;169.02;0.01;-0.01;-0.02;0.00;0.2;109.0;109.0;95.0;95.0;0.0;0.0;259.01;-2.90;-2.29;-59.76;-80.00;2.30;-24.72;-0.00;0.00;0.00;0.00;0.02;-4.01;0.00;0.00;0.00;0.00;0.00;0.00;0.00;0.00;0.00;0.00;0.00;0.00;0.00;0.00;0.00;88.92;0.00;-0.55;0.00;0.00;0.00;0.00;0.00;0.00;-1.57;0.34;-25.87;Running;262.99;57.678717;11.782451;Running;259.01;57.682638;11.831632;Running;31.37;57.574289;11.627886
10;00:00:10;On;259.00;70.0;70.0;0.00;0.00;0.00;0.0;0.0;82.00;14.70;6.84;6.81;7.86;7.89;0.00;0.00;1.03;0.00;7.70;7.40;0.10;0.00;-0.01;7.83;7.83;-0.01;0.10;6.03;0.00;-0.01;0.00;-0.00;0.01;0.01;0.0;359.94;0.0;359.99;0.8;-0.18;57.682625;11.831503;258.91;7.83;7.83;169.02;0.01;-0.01;-0.02;0.00;0.2;109.0;109.0;95.0;95.0;0.0;0.0;259.02;-2.91;-2.29;-59.78;-80.09;2.30;-25.25;-0.00;0.00;0.00;0.00;0.02;-3.87;0.00;0.00;0.00;0.00;0.00;0.00;0.00;0.00;0.00;0.00;0.00;0.00;0.00;0.00;0.00;89.16;0.00;-0.54;0.00;0.00;0.00;0.00;0.00;0.00;-1.57;0.37;-28.70;Running;262.98;57.678709;11.782327;Running;259.02;57.682625;11.831503;Running;31.19;57.574351;11.627958
11;00:00:11;On;259.00;70.0;70.0;0.00;0.00;0.00;0.0;0.0;89.00;14.70;6.82;6.81;7.88;7.89;0.00;0.00;1.03;0.00;7.70;7.40;0.10;0.00;-0.01;7.83;7.83;-0.01;0.10;6.03;0.00;-0.01;0.00;0.01;0.02;0.02;0.0;359.94;-0.0;0.00;0.4;-0.15;57.682611;11.831373;258.92;7.83;7.83;169.02;0.01;-0.01;-0.02;0.00;0.2;109.0;109.0;95.0;95.0;0.0;0.0;259.02;-2.91;-2.29;-59.80;-80.15;2.30;-25.12;0.01;0.00;0.00;0.00;0.02;-3.71;0.00;0.00;0.00;0.00;0.00;0.00;0.00;0.00;0.00;0.00;0.00;0.00;0.00;0.00;0.00;89.52;0.00;-0.53;0.00;0.00;0.00;0.00;0.00;0.00;-1.57;0.39;-30.36;Running;262.98;57.678701;11.782204;Running;259.02;57.682611;11.831373;Running;31.00;57.574413;11.628031
12;00:00:12;On;259.00;70.0;70.0;0.00;0.00;0.00;0.0;0.0;97.00;14.70;6.80;6.80;7.90;7.90;0.00;0.00;1.03;0.00;7.70;7.40;0.10;0.00;-0.01;7.83;7.83;-0.01;0.10;6.03;0.01;-0.01;0.00;0.00;-0.01;0.02;0.0;359.94;-0.0;0.00;-0.0;-0.15;57.682597;11.831244;258.92;7.83;7.83;169.02;0.01;-0.01;-0.02;0.00;0.2;109.0;109.0;95.0;95.0;0.0;0.0;259.02;-2.91;-2.29;-59.81;-80.19;2.30;-24.42;-0.00;0.00;0.00;0.00;0.02;-3.60;0.00;0.00;0.00;0.00;0.00;0.00;0.00;0.00;0.00;0.00;0.00;0.00;0.00;0.00;0.00;89.53;0.00;-0.53;0.00;0.00;0.00;0.00;0.00;0.00;-1.57;0.42;-32.46;Running;262.98;57.678693;11.78208;Running;259.02;57.682597;11.831244;Running;30.80;57.574476;11.628103
13;00:00:13;On;259.00;70.0;70.0;0.00;0.00;0.00;0.0;0.0;105.00;14.70;6.81;6.81;7.89;7.89;0.00;0.00;1.03;0.00;7.70;7.40;0.10;0.00;-0.01;7.83;7.83;-0.01;0.10;6.03;0.01;-0.01;0.00;-0.00;-0.01;0.02;-0.0;359.94;-0.1;0.00;-0.3;-0.16;57.682584;11.831114;258.92;7.83;7.83;169.03;0.01;-0.01;-0.02;0.00;0.2;109.0;109.0;95.0;95.0;0.0;0.0;259.03;-2.91;-2.29;-59.81;-80.23;2.31;-23.32;-0.00;0.00;0.00;0.00;0.01;-3.38;0.00;0.00;0.00;0.00;0.00;0.00;0.00;0.00;0.00;0.00;0.00;0.00;0.00;0.00;0.00;89.54;0.00;-0.53;0.00;0.00;0.00;0.00;0.00;0.00;-1.57;0.45;-34.93;Running;262.98;57.678685;11.781956;Running;259.03;57.682584;11.831114;Running;30.59;57.574538;11.628176
14;00:00:14;On;259.00;70.0;70.0;0.00;0.00;0.00;0.0;0.0;113.00;14.70;6.83;6.82;7.87;7.88;0.00;0.00;1.03;0.00;7.70;7.40;0.10;0.00;-0.01;7.83;7.83;-0.01;0.10;6.04;0.01;-0.01;0.00;-0.01;-0.01;0.02;-0.0;359.94;-0.1;359.99;-0.3;-0.17;57.68257;11.830985;258.92;7.83;7.83;169.03;0.01;-0.01;-0.02;0.00;0.2;109.0;109.0;95.0;95.0;0.0;0.0;259.03;-2.91;-2.29;-59.82;-80.30;2.33;-22.25;0.00;0.00;0.00;0.00;0.01;-3.16;0.00;0.00;0.00;0.00;0.00;0.00;0.00;0.00;0.00;0.00;0.00;0.00;0.00;0.00;0.00;89.75;0.00;-0.53;0.00;0.00;0.00;0.00;0.00;0.00;-1.57;0.47;-36.22;Running;262.98;57.678677;11.781833;Running;259.03;57.68257;11.830985;Running;30.38;57.574602;11.628248
15;00:00:15;On;259.00;70.0;70.0;0.00;0.00;0.00;0.0;0.0;121.00;14.70;6.82;6.80;7.88;7.90;0.00;0.00;1.03;0.00;7.70;7.40;0.10;0.00;-0.01;7.84;7.84;-0.01;0.11;6.04;0.01;-0.01;0.00;0.00;0.02;0.02;-0.0;359.94;-0.1;359.99;-0.1;-0.16;57.682557;11.830855;258.92;7.84;7.84;169.03;0.01;-0.01;-0.02;0.00;0.2;109.0;109.0;95.0;95.0;0.0;0.0;259.03;-2.91;-2.29;-59.84;-80.38;2.35;-21.46;-0.01;0.00;0.00;0.00;0.01;-3.03;0.00;0.00;0.00;0.00;0.00;0.00;0.00;0.00;0.00;0.00;0.00;0.00;0.00;0.00;0.00;89.66;0.00;-0.53;0.00;0.00;0.00;0.00;0.00;0.00;-1.58;0.48;-36.89;Running;262.98;57.678669;11.781709;Running;259.03;57.682557;11.830855;Running;30.17;57.574665;11.62832
16;00:00:16;On;259.00;60.0;60.0;0.00;0.00;0.00;0.0;0.0;129.00;14.70;6.82;6.79;7.88;7.91;0.00;0.00;1.03;0.00;7.71;7.40;0.10;0.00;-0.01;7.84;7.84;-0.01;0.11;6.04;0.01;-0.01;0.00;0.01;0.01;0.02;-0.0;359.94;-0.1;359.99;0.0;-0.16;57.682543;11.830725;258.93;7.84;7.84;169.03;0.01;-0.01;-0.02;0.00;0.2;109.0;109.0;95.0;95.0;0.0;0.0;259.03;-2.91;-2.29;-59.85;-80.46;2.37;-20.90;0.01;0.00;0.00;0.00;0.01;-3.14;0.00;0.00;0.00;0.00;0.00;0.00;0.00;0.00;0.00;0.00;0.00;0.00;0.00;0.00;0.00;89.48;0.00;-0.54;0.00;0.00;0.00;0.00;0.00;0.00;-1.58;0.50;-38.75;Running;262.98;57.67866;11.781586;Running;259.03;57.682543;11.830725;Running;29.98;57.574729;11.628392
17;00:00:17;On;259.00;60.0;60.0;0.00;0.00;0.00;0.0;0.0;136.00;14.70;6.82;6.80;7.88;7.90;0.00;0.00;1.03;0.00;7.71;7.40;0.10;0.00;-0.01;7.84;7.84;-0.01;0.11;6.04;0.01;-0.01;0.00;0.00;-0.01;0.02;-0.0;359.93;-0.0;359.99;0.2;-0.17;57.68253;11.830596;258.93;7.84;7.84;169.04;0.01;-0.01;-0.02;0.00;0.2;108.0;108.0;95.0;95.0;0.0;0.0;259.04;-2.92;-2.29;-59.86;-80.53;2.39;-20.13;0.00;0.00;0.00;0.00;0.01;-3.16;0.00;0.00;0.00;0.00;0.00;0.00;0.00;0.00;0.00;0.00;0.00;0.00;0.00;0.00;0.00;88.11;0.00;-0.54;0.00;0.00;0.00;0.00;0.00;0.00;-1.58;0.53;-40.74;Running;262.98;57.678652;11.781462;Running;259.04;57.68253;11.830596;Running;29.81;57.574793;11.628464
18;00:00:18;On;259.00;60.0;60.0;0.00;0.00;0.00;0.0;0.0;144.00;14.70;6.83;6.81;7.87;7.89;0.00;0.00;1.03;0.00;7.71;7.40;0.10;0.00;-0.01;7.84;7.84;-0.01;0.11;6.04;0.01;-0.01;0.00;-0.00;-0.00;0.03;-0.0;359.93;-0.0;359.99;0.2;-0.17;57.682516;11.830466;258.93;7.84;7.84;169.04;0.01;-0.01;-0.02;0.00;0.1;107.0;107.0;95.0;95.0;0.0;0.0;259.04;-2.92;-2.29;-59.86;-80.56;2.40;-19.39;-0.01;0.00;0.00;0.00;0.01;-3.18;0.00;0.00;0.00;0.00;0.00;0.00;0.00;0.00;0.00;0.00;0.00;0.00;0.00;0.00;0.00;84.82;0.00;-0.67;0.00;0.00;0.00;0.00;0.00;0.00;-1.58;0.54;-41.53;Running;262.99;57.678644;11.781339;Running;259.04;57.682516;11.830466;Running;29.66;57.574857;11.628535
19;00:00:19;On;259.00;60.0;60.0;0.00;0.00;0.00;0.0;0.0;152.00;14.70;6.82;6.81;7.88;7.89;0.00;0.00;1.03;0.00;7.71;7.40;0.10;0.00;-0.01;7.84;7.84;-0.01;0.11;6.04;0.01;-0.01;0.00;0.00;0.01;0.03;-0.0;359.93;-0.0;0.00;0.1;-0.16;57.682502;11.830336;258.93;7.84;7.84;169.04;0.01;-0.01;-0.02;0.00;0.1;106.0;106.0;95.0;95.0;0.0;0.0;259.04;-2.92;-2.29;-59.85;-80.53;2.42;-18.88;0.01;0.00;0.00;0.00;0.01;-3.18;0.00;0.00;0.00;0.00;0.00;0.00;0.00;0.00;0.00;0.00;0.00;0.00;0.00;0.00;0.00;81.56;0.00;-0.62;0.00;0.00;0.00;0.00;0.00;0.00;-1.58;0.54;-41.79;Running;262.99;57.678636;11.781215;Running;259.04;57.682502;11.830336;Running;29.53;57.574922;11.628606
20;00:00:20;On;259.00;60.0;60.0;0.00;0.00;0.00;0.0;0.0;160.00;14.70;6.81;6.80;7.89;7.90;0.00;0.00;1.03;0.00;7.71;7.40;0.10;0.00;-0.02;7.84;7.84;-0.02;0.11;6.04;0.00;-0.01;0.00;0.01;0.01;0.03;-0.0;359.93;-0.0;0.00;-0.0;-0.15;57.682489;11.830207;258.93;7.84;7.84;169.04;0.02;-0.01;-0.02;0.00;0.1;106.0;106.0;95.0;95.0;0.0;0.0;259.04;-2.91;-2.29;-59.83;-80.45;2.43;-18.51;-0.00;0.00;0.00;0.00;0.01;-3.20;0.00;0.00;0.00;0.00;0.00;0.00;0.00;0.00;0.00;0.00;0.00;0.00;0.00;0.00;0.00;79.31;0.00;-0.62;0.00;0.00;0.00;0.00;0.00;0.00;-1.58;0.57;-43.81;Running;262.99;57.678628;11.781092;Running;259.04;57.682489;11.830207;Running;29.43;57.574987;11.628677
21;00:00:21;On;259.00;60.0;60.0;0.00;0.00;0.00;0.0;0.0;168.00;14.70;6.81;6.80;7.89;7.90;0.00;0.00;1.03;0.00;7.70;7.40;0.10;0.00;-0.02;7.83;7.83;-0.02;0.11;6.04;-0.00;-0.01;0.00;0.00;-0.01;0.03;-0.0;359.93;-0.0;0.00;-0.1;-0.16;57.682475;11.830077;258.94;7.83;7.83;169.05;0.02;-0.01;-0.02;0.00;0.1;105.0;105.0;95.0;95.0;0.0;0.0;259.05;-2.91;-2.29;-59.80;-80.34;2.44;-17.90;-0.00;0.00;0.00;0.00;0.01;-3.23;0.00;0.00;0.00;0.00;0.00;0.00;0.00;0.00;0.00;0.00;0.00;0.00;0.00;0.00;0.00;77.48;0.00;-0.54;0.00;0.00;0.00;0.00;0.00;0.00;-1.58;0.59;-45.52;Running;262.99;57.67862;11.780969;Running;259.05;57.682475;11.830077;Running;29.37;57.575053;11.628748
22;00:00:22;On;259.00;60.0;60.0;0.00;0.00;0.00;0.0;0.0;176.00;14.70;6.82;6.81;7.88;7.89;0.00;0.00;1.03;0.00;7.70;7.40;0.10;0.00;-0.02;7.83;7.83;-0.02;0.11;6.04;-0.00;-0.01;0.00;-0.00;-0.01;0.03;-0.0;359.93;-0.0;359.99;-0.1;-0.17;57.682462;11.829947;258.94;7.83;7.83;169.05;0.02;-0.01;-0.02;0.00;0.1;105.0;105.0;95.0;95.0;0.0;0.0;259.05;-2.91;-2.29;-59.77;-80.22;2.45;-17.30;0.00;0.00;0.00;0.00;0.01;-3.26;0.00;0.00;0.00;0.00;0.00;0.00;0.00;0.00;0.00;0.00;0.00;0.00;0.00;0.00;0.00;76.01;0.00;-0.48;0.00;0.00;0.00;0.00;0.00;0.00;-1.58;0.60;-46.45;Running;262.99;57.678612;11.780845;Running;259.05;57.682462;11.829947;Running;29.35;57.575118;11.628819
23;00:00:23;On;259.00;60.0;60.0;0.00;0.00;0.00;0.0;0.0;183.00;14.70;6.83;6.81;7.87;7.89;0.00;0.00;1.03;0.00;7.70;7.40;0.10;0.00;-0.02;7.83;7.83;-0.02;0.11;6.04;-0.01;-0.01;0.00;-0.00;0.00;0.03;-0.0;359.93;-0.0;359.99;-0.1;-0.17;57.682448;11.829818;258.94;7.83;7.83;169.05;0.02;-0.01;-0.02;0.00;0.1;105.0;105.0;95.0;95.0;0.0;0.0;259.05;-2.91;-2.29;-59.73;-80.09;2.46;-16.81;-0.01;0.00;0.00;0.00;0.01;-3.28;0.00;0.00;0.00;0.00;0.00;0.00;0.00;0.00;0.00;0.00;0.00;0.00;0.00;0.00;0.00;75.16;0.00;-0.44;0.00;0.00;0.00;0.00;0.00;0.00;-1.58;0.61;-46.99;Running;262.99;57.678604;11.780722;Running;259.05;57.682448;11.829818;Running;29.39;57.575184;11.628888
24;00:00:24;On;259.00;60.0;60.0;0.00;0.00;0.00;0.0;0.0;191.00;14.70;6.82;6.80;7.88;7.90;0.00;0.00;1.03;0.00;7.69;7.40;0.10;0.00;-0.02;7.82;7.82;-0.02;0.11;6.03;-0.01;-0.01;0.00;0.01;0.01;0.03;-0.0;359.93;-0.0;359.99;0.0;-0.16;57.682435;11.829689;258.94;7.82;7.82;169.05;0.02;-0.01;-0.02;0.00;0.1;105.0;104.0;95.0;95.0;0.0;0.0;259.05;-2.90;-2.29;-59.70;-79.95;2.47;-16.22;0.00;0.00;0.00;0.00;0.01;-3.30;0.00;0.00;0.00;0.00;0.00;0.00;0.00;0.00;0.00;0.00;0.00;0.00;0.00;0.00;0.00;74.56;0.00;-0.41;0.00;0.00;0.00;0.00;0.00;0.00;-1.58;0.64;-49.58;Running;262.99;57.678596;11.780598;Running;259.05;57.682435;11.829689;Running;29.49;57.57525;11.628958
25;00:00:25;On;259.00;60.0;60.0;0.00;0.00;0.00;0.0;0.0;199.00;14.70;6.82;6.80;7.88;7.90;0.00;0.00;1.03;0.00;7.69;7.40;0.10;0.00;-0.02;7.82;7.82;-0.02;0.11;6.03;-0.01;-0.01;0.00;0.00;-0.01;0.03;-0.0;359.93;-0.0;359.99;0.0;-0.16;57.682421;11.829559;258.94;7.82;7.82;169.06;0.02;-0.01;-0.02;0.00;0.1;104.0;104.0;95.0;95.0;0.0;0.0;259.06;-2.90;-2.29;-59.67;-79.80;2.46;-15.36;0.00;0.00;0.00;0.00;0.01;-3.31;0.00;0.00;0.00;0.00;0.00;0.00;0.00;0.00;0.00;0.00;0.00;0.00;0.00;0.00;0.00;73.99;0.00;-0.38;0.00;0.00;0.00;0.00;0.00;0.00;-1.58;0.67;-51.23;Running;262.99;57.678588;11.780475;Running;259.06;57.682421;11.829559;Running;29.67;57.575317;11.629027
26;00:00:26;On;259.00;60.0;60.0;0.00;0.00;0.00;0.0;0.0;207.00;14.70;6.83;6.81;7.87;7.89;0.00;0.00;1.03;0.00;7.68;7.40;0.10;0.00;-0.02;7.81;7.81;-0.02;0.11;6.03;-0.01;-0.01;0.00;-0.00;-0.02;0.03;-0.0;359.93;-0.0;359.99;0.0;-0.17;57.682408;11.82943;258.95;7.81;7.81;169.06;0.02;-0.01;-0.02;0.00;0.1;104.0;104.0;95.0;95.0;0.0;0.0;259.06;-2.90;-2.29;-59.63;-79.65;2.46;-14.39;-0.01;0.00;0.00;0.00;0.01;-3.34;0.00;0.00;0.00;0.00;0.00;0.00;0.00;0.00;0.00;0.00;0.00;0.00;0.00;0.00;0.00;73.73;0.00;-0.37;0.00;0.00;0.00;0.00;0.00;0.00;-1.58;0.68;-52.13;Running;262.99;57.678579;11.780352;Running;259.06;57.682408;11.82943;Running;29.93;57.575383;11.629096
27;00:00:27;On;259.00;60.0;60.0;0.00;0.00;0.00;0.0;0.0;215.00;14.70;6.83;6.81;7.87;7.89;0.00;0.00;1.03;0.00;7.68;7.40;0.10;0.00;-0.02;7.81;7.81;-0.02;0.11;6.02;-0.01;-0.01;0.00;-0.00;0.01;0.03;-0.0;359.93;-0.0;359.99;0.0;-0.17;57.682394;11.829301;258.95;7.81;7.81;169.06;0.02;-0.01;-0.02;0.00;0.1;104.0;104.0;95.0;95.0;0.0;0.0;259.06;-2.89;-2.28;-59.60;-79.49;2.46;-13.44;0.01;0.00;0.00;0.00;0.01;-3.36;0.00;0.00;0.00;0.00;0.00;0.00;0.00;0.00;0.00;0.00;0.00;0.00;0.00;0.00;0.00;73.66;0.00;-0.35;0.00;0.00;0.00;0.00;0.00;0.00;-1.57;0.68;-52.59;Running;262.99;57.678571;11.780229;Running;259.06;57.682394;11.829301;Running;30.24;57.57545;11.629165
28;00:00:28;On;259.00;60.0;60.0;0.00;0.00;0.00;0.0;0.0;222.00;14.70;6.82;6.80;7.88;7.90;0.00;0.00;1.03;0.00;7.67;7.50;0.10;0.00;-0.02;7.80;7.80;-0.02;0.11;6.02;-0.02;-0.01;0.00;0.00;0.02;0.04;-0.0;359.93;-0.0;359.99;-0.0;-0.16;57.682381;11.829172;258.95;7.80;7.80;169.06;0.02;-0.01;-0.02;0.00;0.1;104.0;104.0;95.0;95.0;0.0;0.0;259.06;-2.89;-2.28;-59.56;-79.34;2.45;-12.41;0.00;0.00;0.00;0.00;0.01;-3.37;0.00;0.00;0.00;0.00;0.00;0.00;0.00;0.00;0.00;0.00;0.00;0.00;0.00;0.00;0.00;73.46;0.00;-0.34;0.00;0.00;0.00;0.00;0.00;0.00;-1.57;0.71;-54.86;Running;262.99;57.678563;11.780106;Running;259.06;57.682381;11.829172;Running;30.60;57.575516;11.629235
29;00:00:29;On;259.00;60.0;60.0;0.00;0.00;0.00;0.0;0.0;230.00;14.70;6.81;6.79;7.89;7.91;0.00;0.00;1.03;0.00;7.67;7.50;0.10;0.00;-0.02;7.80;7.80;-0.02;0.11;6.02;-0.02;-0.01;0.00;0.01;0.00;0.04;-0.0;359.93;-0.0;359.99;-0.0;-0.15;57.682367;11.829043;258.95;7.80;7.80;169.07;0.02;-0.01;-0.02;0.00;0.1;104.0;104.0;95.0;95.0;0.0;0.0;259.07;-2.89;-2.28;-59.53;-79.18;2.44;-11.08;-0.00;0.00;0.00;0.00;0.01;-3.38;0.00;0.00;0.00;0.00;0.00;0.00;0.00;0.00;0.00;0.00;0.00;0.00;0.00;0.00;0.00;73.33;0.00;-0.33;0.00;0.00;0.00;0.00;0.00;0.00;-1.57;0.73;-56.46;Running;262.99;57.678555;11.779982;Running;259.07;57.682367;11.829043;Running;30.99;57.575582;11.629305
30;00:00:30;On;259.00;60.0;60.0;0.00;0.00;0.00;0.0;0.0;238.00;14.70;6.82;6.80;7.88;7.90;0.00;0.00;1.03;0.00;7.66;7.50;0.10;0.00;-0.02;7.79;7.79;-0.02;0.11;6.01;-0.02;-0.01;0.00;-0.00;-0.02;0.04;-0.0;359.93;-0.0;359.99;-0.0;-0.16;57.682354;11.828914;258.96;7.79;7.79;169.07;0.02;-0.01;-0.02;0.00;0.1;104.0;104.0;95.0;95.0;0.0;0.0;259.07;-2.88;-2.28;-59.50;-79.03;2.43;-9.67;0.01;0.00;0.00;0.00;0.01;-3.39;0.00;0.00;0.00;0.00;0.00;0.00;0.00;0.00;0.00;0.00;0.00;0.00;0.00;0.00;0.00;73.42;0.00;-0.33;0.00;0.00;0.00;0.00;0.00;0.00;-1.57;0.74;-57.27;Running;262.99;57.678547;11.779859;Running;259.07;57.682354;11.828914;Running;31.40;57.575648;11.629375
31;00:00:31;On;259.00;60.0;60.0;0.00;0.00;0.00;0.0;0.0;246.00;14.70;6.83;6.81;7.87;7.89;0.00;0.00;1.03;0.00;7.66;7.50;0.10;0.00;-0.02;7.79;7.79;-0.02;0.11;6.01;-0.02;-0.01;0.00;-0.00;-0.01;0.04;-0.0;359.93;0.0;359.99;-0.0;-0.17;57.68234;11.828785;258.96;7.79;7.79;169.07;0.02;-0.01;-0.02;0.00;0.1;104.0;104.0;95.0;95.0;0.0;0.0;259.07;-2.88;-2.28;-59.47;-78.88;2.43;-8.17;-0.01;0.00;0.00;0.00;0.01;-3.41;0.00;0.00;0.00;0.00;0.00;0.00;0.00;0.00;0.00;0.00;0.00;0.00;0.00;0.00;0.00;73.69;0.00;-2.29;0.00;0.00;0.00;0.00;0.00;0.00;-1.57;0.75;-57.68;Running;262.99;57.678539;11.779736;Running;259.07;57.68234;11.828785;Running;31.81;57.575714;11.629447
32;00:00:32;On;259.00;60.0;60.0;0.00;0.00;0.00;0.0;0.0;254.00;14.70;6.83;6.81;7.87;7.89;0.00;0.00;1.03;0.00;7.66;7.50;0.10;0.00;-0.01;7.78;7.78;-0.01;0.11;6.00;-0.02;-0.01;0.00;0.00;0.01;0.04;-0.0;359.93;0.0;359.99;0.0;-0.16;57.682327;11.828656;258.96;7.78;7.78;169.07;0.01;-0.01;-0.02;0.00;0.1;104.0;104.0;95.0;95.0;0.0;0.0;259.07;-2.88;-2.28;-59.44;-78.75;2.42;-6.50;0.00;0.00;0.00;0.00;0.01;-3.42;0.00;0.00;0.00;0.00;0.00;0.00;0.00;0.00;0.00;0.00;0.00;0.00;0.00;0.00;0.00;74.04;0.00;-2.35;0.00;0.00;0.00;0.00;0.00;0.00;-1.57;0.75;-57.84;Running;262.99;57.678531;11.779613;Running;259.07;57.682327;11.828656;Running;32.23;57.57578;11.62952
33;00:00:33;On;259.00;60.0;60.0;0.00;0.00;0.00;0.0;0.0;261.00;14.70;6.82;6.79;7.88;7.91;0.00;0.00;1.03;0.00;7.65;7.50;0.10;0.00;-0.01;7.78;7.78;-0.01;0.11;6.00;-0.02;-0.01;0.00;0.01;0.01;0.04;-0.0;359.93;0.0;359.99;0.0;-0.15;57.682314;11.828527;258.96;7.78;7.78;169.07;0.01;-0.01;-0.02;0.00;0.1;104.0;104.0;95.0;95.0;0.0;0.0;259.07;-2.87;-2.28;-59.41;-78.64;2.41;-4.97;0.00;0.00;0.00;0.00;0.01;-3.44;0.00;0.00;0.00;0.00;0.00;0.00;0.00;0.00;0.00;0.00;0.00;0.00;0.00;0.00;0.00;74.52;0.00;-1.78;0.00;0.00;0.00;0.00;0.00;0.00;-1.57;0.78;-60.28;Running;262.99;57.678523;11.77949;Running;259.07;57.682314;11.828527;Running;32.62;57.575846;11.629594
34;00:00:34;On;259.00;60.0;60.0;0.00;0.00;0.00;0.0;0.0;269.00;14.70;6.81;6.79;7.89;7.91;0.00;0.00;1.03;0.00;7.65;7.50;0.10;0.00;-0.01;7.78;7.78;-0.01;0.11;6.00;-0.02;-0.01;0.00;0.00;-0.01;0.04;-0.0;359.93;0.0;359.99;0.0;-0.16;57.6823;11.828399;258.97;7.78;7.78;169.08;0.01;-0.01;-0.02;0.00;0.1;104.0;104.0;95.0;95.0;0.0;0.0;259.07;-2.87;-2.28;-59.39;-78.54;2.40;-3.46;-0.01;0.00;0.00;0.00;0.01;-3.45;0.00;0.00;0.00;0.00;0.00;0.00;0.00;0.00;0.00;0.00;0.00;0.00;0.00;0.00;0.00;74.93;0.00;-1.37;0.00;0.00;0.00;0.00;0.00;0.00;-1.57;0.80;-61.57;Running;262.99;57.678515;11.779367;Running;259.07;57.6823;11.828399;Running;33.01;57.575912;11.629668
35;00:00:35;On;259.00;60.0;60.0;0.00;0.00;0.00;0.0;0.0;277.00;14.70;6.83;6.80;7.87;7.90;0.00;0.00;1.03;0.00;7.65;7.50;0.10;0.00;-0.01;7.77;7.77;-0.01;0.11;6.00;-0.02;-0.01;0.00;-0.00;-0.01;0.04;-0.0;359.93;0.0;359.99;-0.0;-0.17;57.682287;11.82827;258.97;7.77;7.77;169.08;0.01;-0.01;-0.02;0.00;0.1;104.0;104.0;95.0;95.0;0.0;0.0;259.08;-2.87;-2.28;-59.37;-78.44;2.38;-2.00;0.00;0.00;0.00;0.00;0.01;-3.42;0.00;0.00;0.00;0.00;0.00;0.00;0.00;0.00;0.00;0.00;0.00;0.00;0.00;0.00;0.00;75.05;0.00;-1.08;0.00;0.00;0.00;0.00;0.00;0.00;-1.57;0.81;-62.21;Running;262.99;57.678507;11.779244;Running;259.08;57.682287;11.82827;Running;33.36;57.575978;11.629744
36;00:00:36;On;259.00;60.0;60.0;0.00;0.00;0.00;0.0;0.0;285.00;14.70;6.83;6.81;7.87;7.89;0.00;0.00;1.03;0.00;7.64;7.50;0.10;0.00;-0.01;7.77;7.77;-0.01;0.11;5.99;-0.02;-0.01;0.00;-0.00;0.00;0.04;-0.0;359.93;0.0;359.99;-0.0;-0.16;57.682273;11.828141;258.97;7.77;7.77;169.08;0.01;-0.01;-0.02;0.00;0.1;104.0;104.0;95.0;95.0;0.0;0.0;259.08;-2.86;-2.27;-59.35;-78.35;2.37;-0.67;-0.00;0.00;0.00;0.00;0.01;-3.44;0.00;0.00;0.00;0.00;0.00;0.00;0.00;0.00;0.00;0.00;0.00;0.00;0.00;0.00;0.00;75.16;0.00;-0.88;0.00;0.00;0.00;0.00;0.00;0.00;-1.56;0.81;-62.50;Running;262.98;57.678498;11.779121;Running;259.08;57.682273;11.828141;Running;33.69;57.576043;11.62982
37;00:00:37;On;259.00;60.0;60.0;0.00;0.00;0.00;0.0;0.0;292.00;14.70;6.82;6.80;7.88;7.90;0.00;0.00;1.03;0.00;7.64;7.50;0.10;0.00;-0.01;7.77;7.77;-0.01;0.11;5.99;-0.02;-0.01;0.00;0.00;0.01;0.04;-0.0;359.93;0.0;359.99;-0.0;-0.15;57.68226;11.828013;258.97;7.77;7.77;169.08;0.01;-0.01;-0.02;0.00;0.1;104.0;104.0;95.0;95.0;0.0;0.0;259.08;-2.86;-2.27;-59.32;-78.26;2.36;0.53;-0.00;0.00;0.00;0.00;0.01;-3.45;0.00;0.00;0.00;0.00;0.00;0.00;0.00;0.00;0.00;0.00;0.00;0.00;0.00;0.00;0.00;75.41;0.00;-0.74;0.00;0.00;0.00;0.00;0.00;0.00;-1.56;0.81;-62.61;Running;262.98;57.67849;11.778998;Running;259.08;57.68226;11.828013;Running;33.98;57.576108;11.629897
38;00:00:38;On;259.00;60.0;60.0;0.00;0.00;0.00;0.0;0.0;300.00;14.70;6.81;6.79;7.89;7.91;0.00;0.00;1.03;0.00;7.64;7.50;0.10;0.00;-0.01;7.76;7.76;-0.01;0.11;5.99;-0.02;-0.01;0.00;0.00;-0.00;0.04;-0.0;359.93;0.0;359.99;-0.0;-0.15;57.682247;11.827885;258.97;7.76;7.76;169.08;0.01;-0.01;-0.02;0.00;0.1;104.0;104.0;95.0;95.0;0.0;0.0;259.08;-2.86;-2.27;-59.31;-78.17;2.34;1.61;0.01;0.00;0.00;0.00;0.01;-3.47;0.00;0.00;0.00;0.00;0.00;0.00;0.00;0.00;0.00;0.00;0.00;0.00;0.00;0.00;0.00;75.51;0.00;-0.64;0.00;0.00;0.00;0.00;0.00;0.00;-1.56;0.83;-63.77;Running;262.97;57.678482;11.778875;Running;259.08;57.682247;11.827885;Running;34.23;57.576174;11.629975
39;00:00:39;On;259.00;60.0;60.0;0.00;0.00;0.00;0.0;0.0;308.00;14.70;6.82;6.80;7.88;7.90;0.00;0.00;1.03;0.00;7.63;7.50;0.10;0.00;-0.01;7.76;7.76;-0.01;0.11;5.98;-0.02;-0.01;0.00;-0.00;-0.01;0.04;-0.0;359.93;0.0;359.99;-0.0;-0.16;57.682233;11.827756;258.98;7.76;7.76;169.08;0.01;-0.01;-0.02;0.00;0.1;104.0;104.0;95.0;95.0;0.0;0.0;259.08;-2.86;-2.27;-59.29;-78.08;2.32;3.04;-0.01;0.00;0.00;0.00;0.01;-3.50;0.00;0.00;0.00;0.00;0.00;0.00;0.00;0.00;0.00;0.00;0.00;0.00;0.00;0.00;0.00;75.46;0.00;-0.57;0.00;0.00;0.00;0.00;0.00;0.00;-1.56;0.85;-65.68;Running;262.97;57.678474;11.778752;Running;259.08;57.682233;11.827756;Running;34.46;57.576239;11.630053
40;00:00:40;On;259.00;60.0;60.0;0.00;0.00;0.00;0.0;0.0;316.00;14.70;6.83;6.80;7.87;7.90;0.00;0.00;1.03;0.00;7.63;7.50;0.10;0.00;-0.01;7.76;7.76;-0.01;0.11;5.98;-0.02;-0.01;0.00;-0.00;0.00;0.04;-0.0;359.93;0.0;359.99;-0.0;-0.16;57.68222;11.827628;258.98;7.76;7.76;169.08;0.01;-0.01;-0.02;0.00;0.1;104.0;104.0;95.0;95.0;0.0;0.0;259.08;-2.85;-2.27;-59.27;-78.00;2.31;4.68;0.00;0.00;0.00;0.00;0.01;-3.52;0.00;0.00;0.00;0.00;0.00;0.00;0.00;0.00;0.00;0.00;0.00;0.00;0.00;0.00;0.00;75.58;0.00;-0.52;0.00;0.00;0.00;0.00;0.00;0.00;-1.56;0.87;-66.68;Running;262.96;57.678466;11.778629;Running;259.08;57.68222;11.827628;Running;34.67;57.576305;11.630132
41;00:00:41;On;259.00;60.0;60.0;0.00;0.00;0.00;0.0;0.0;323.00;14.70;6.82;6.79;7.88;7.91;0.00;0.00;1.03;0.00;7.63;7.50;0.10;0.00;-0.01;7.75;7.75;-0.01;0.11;5.98;-0.02;-0.01;0.00;0.01;0.02;0.03;-0.0;359.93;0.0;359.99;0.0;-0.15;57.682206;11.827499;258.98;7.75;7.75;169.09;0.01;-0.01;-0.02;0.00;0.1;104.0;104.0;95.0;95.0;0.0;0.0;259.09;-2.85;-2.27;-59.25;-77.92;2.29;6.25;0.00;0.00;0.00;0.00;0.01;-3.53;0.00;0.00;0.00;0.00;0.00;0.00;0.00;0.00;0.00;0.00;0.00;0.00;0.00;0.00;0.00;75.74;0.00;-0.48;0.00;0.00;0.00;0.00;0.00;0.00;-1.56;0.87;-67.14;Running;262.95;57.678458;11.778506;Running;259.09;57.682206;11.827499;Running;34.87;57.57637;11.630212
42;00:00:42;On;259.00;60.0;60.0;0.00;0.00;0.00;0.0;0.0;331.00;14.70;6.81;6.79;7.89;7.91;0.00;0.00;1.03;0.00;7.62;7.50;0.10;0.00;-0.01;7.75;7.75;-0.01;0.10;5.98;-0.02;-0.01;0.00;0.01;0.00;0.03;-0.0;359.93;0.0;359.99;0.0;-0.15;57.682193;11.827371;258.98;7.75;7.75;169.09;0.01;-0.01;-0.02;0.00;0.1;104.0;104.0;95.0;95.0;0.0;0.0;259.09;-2.85;-2.27;-59.24;-77.84;2.27;7.69;-0.01;0.00;0.00;0.00;0.01;-3.54;0.00;0.00;0.00;0.00;0.00;0.00;0.00;0.00;0.00;0.00;0.00;0.00;0.00;0.00;0.00;75.69;0.00;-0.45;0.00;0.00;0.00;0.00;0.00;0.00;-1.56;0.87;-67.31;Running;262.94;57.67845;11.778383;Running;259.09;57.682193;11.827371;Running;35.05;57.576436;11.630292
43;00:00:43;On;259.00;60.0;60.0;0.00;0.00;0.00;0.0;0.0;339.00;14.70;6.82;6.80;7.88;7.90;0.00;0.00;1.03;0.00;7.62;7.50;0.10;0.00;-0.01;7.75;7.75;-0.01;0.10;5.98;-0.02;-0.01;0.00;-0.00;-0.01;0.03;-0.0;359.93;0.0;359.99;0.0;-0.16;57.68218;11.827243;258.98;7.75;7.75;169.09;0.01;-0.01;-0.02;0.00;0.1;104.0;104.0;95.0;95.0;0.0;0.0;259.09;-2.85;-2.27;-59.22;-77.76;2.25;9.09;0.01;0.00;0.00;0.00;0.01;-3.57;0.00;0.00;0.00;0.00;0.00;0.00;0.00;0.00;0.00;0.00;0.00;0.00;0.00;0.00;0.00;75.67;0.00;-0.43;0.00;0.00;0.00;0.00;0.00;0.00;-1.56;0.87;-67.34;Running;262.94;57.678441;11.77826;Running;259.09;57.68218;11.827243;Running;35.23;57.576501;11.630372
44;00:00:44;On;259.00;60.0;60.0;0.00;0.00;0.00;0.0;0.0;347.00;14.70;6.83;6.81;7.87;7.89;0.00;0.00;1.03;0.00;7.62;7.50;0.10;0.00;-0.01;7.75;7.75;-0.01;0.10;5.97;-0.02;-0.01;0.00;-0.01;-0.01;0.03;-0.0;359.93;0.0;359.99;0.0;-0.17;57.682166;11.827115;258.99;7.75;7.75;169.09;0.01;-0.01;-0.02;0.00;0.1;104.0;104.0;95.0;95.0;0.0;0.0;259.09;-2.85;-2.27;-59.21;-77.68;2.23;10.40;-0.00;0.00;0.00;0.00;0.01;-3.59;0.00;0.00;0.00;0.00;0.00;0.00;0.00;0.00;0.00;0.00;0.00;0.00;0.00;0.00;0.00;75.83;0.00;-0.41;0.00;0.00;0.00;0.00;0.00;0.00;-1.56;0.87;-67.29;Running;262.93;57.678433;11.778137;Running;259.09;57.682166;11.827115;Running;35.39;57.576567;11.630453
45;00:00:45;On;259.00;60.0;60.0;0.00;0.00;0.00;0.0;0.0;354.00;14.70;6.82;6.80;7.88;7.90;0.00;0.00;1.03;0.00;7.61;7.50;0.10;0.00;-0.01;7.74;7.74;-0.01;0.10;5.97;-0.01;-0.01;0.00;0.00;0.02;0.03;-0.0;359.93;0.0;359.99;-0.0;-0.16;57.682153;11.826987;258.99;7.74;7.74;169.09;0.01;-0.01;-0.02;0.00;0.1;104.0;104.0;95.0;95.0;0.0;0.0;259.09;-2.84;-2.27;-59.19;-77.61;2.22;11.59;-0.00;0.00;0.00;0.00;0.01;-3.60;0.00;0.00;0.00;0.00;0.00;0.00;0.00;0.00;0.00;0.00;0.00;0.00;0.00;0.00;0.00;75.88;0.00;-0.40;0.00;0.00;0.00;0.00;0.00;0.00;-1.56;0.87;-67.22;Running;262.92;57.678425;11.778015;Running;259.09;57.682153;11.826987;Running;35.55;57.576632;11.630534
46;00:00:46;On;259.00;60.0;60.0;0.00;0.00;0.00;0.0;0.0;362.00;14.70;6.81;6.79;7.89;7.91;0.00;0.00;1.03;0.00;7.61;7.50;0.10;0.00;-0.01;7.74;7.74;-0.01;0.10;5.97;-0.01;-0.01;0.00;0.01;0.01;0.03;-0.0;359.93;0.0;359.99;-0.0;-0.15;57.68214;11.826859;258.99;7.74;7.74;169.09;0.01;-0.01;-0.02;0.00;0.1;104.0;104.0;95.0;95.0;0.0;0.0;259.09;-2.84;-2.27;-59.18;-77.53;2.20;12.79;0.01;0.00;0.00;0.00;0.01;-3.62;0.00;0.00;0.00;0.00;0.00;0.00;0.00;0.00;0.00;0.00;0.00;0.00;0.00;0.00;0.00;75.78;0.00;-0.39;0.00;0.00;0.00;0.00;0.00;0.00;-1.55;0.89;-68.76;Running;262.91;57.678417;11.777892;Running;259.09;57.68214;11.826859;Running;35.70;57.576697;11.630616
47;00:00:47;On;259.00;60.0;60.0;0.00;0.00;0.00;0.0;0.0;370.00;14.70;6.81;6.79;7.89;7.91;0.00;0.00;1.03;0.00;7.61;7.50;0.10;0.00;-0.01;7.74;7.74;-0.01;0.10;5.97;-0.01;-0.01;0.00;0.00;-0.01;0.03;-0.0;359.93;0.0;359.99;-0.0;-0.16;57.682126;11.826731;258.99;7.74;7.74;169.09;0.01;-0.01;-0.01;0.00;0.1;104.0;104.0;95.0;95.0;0.0;0.0;259.09;-2.84;-2.27;-59.16;-77.46;2.18;14.34;-0.01;0.00;0.00;0.00;0.01;-3.64;0.00;0.00;0.00;0.00;0.00;0.00;0.00;0.00;0.00;0.00;0.00;0.00;0.00;0.00;0.00;75.86;0.00;-0.38;0.00;0.00;0.00;0.00;0.00;0.00;-1.55;0.91;-70.41;Running;262.90;57.678408;11.777769;Running;259.09;57.682126;11.826731;Running;35.85;57.576763;11.630698
48;00:00:48;On;259.00;60.0;60.0;0.00;0.00;0.00;0.0;0.0;378.00;14.70;6.83;6.80;7.87;7.90;0.00;0.00;1.03;0.00;7.61;7.50;0.10;0.00;-0.01;7.73;7.73;-0.01;0.10;5.96;-0.01;-0.01;0.00;-0.00;-0.01;0.03;-0.0;359.93;0.0;359.99;0.0;-0.17;57.682113;11.826603;258.99;7.73;7.73;169.09;0.01;-0.01;-0.01;0.00;0.0;104.0;104.0;95.0;95.0;0.0;0.0;259.09;-2.84;-2.27;-59.15;-77.39;2.16;16.06;-0.00;0.00;0.00;0.00;0.01;-3.65;0.00;0.00;0.00;0.00;0.00;0.00;0.00;0.00;0.00;0.00;0.00;0.00;0.00;0.00;0.00;76.00;0.00;-0.37;0.00;0.00;0.00;0.00;0.00;0.00;-1.55;0.93;-71.24;Running;262.90;57.6784;11.777647;Running;259.09;57.682113;11.826603;Running;35.98;57.576828;11.630782
49;00:00:49;On;259.00;60.0;60.0;0.00;0.00;0.00;0.0;0.0;385.00;14.70;6.83;6.80;7.87;7.90;0.00;0.00;1.03;0.00;7.60;7.50;0.10;0.00;-0.01;7.73;7.73;-0.01;0.10;5.96;-0.01;-0.01;0.00;-0.00;0.01;0.03;-0.0;359.93;0.0;359.99;0.0;-0.16;57.6821;11.826475;259.00;7.73;7.73;169.09;0.01;-0.01;-0.01;0.00;0.0;104.0;104.0;95.0;95.0;0.0;0.0;259.09;-2.84;-2.27;-59.14;-77.32;2.13;17.73;0.00;0.00;0.00;0.00;0.01;-3.67;0.00;0.00;0.00;0.00;0.00;0.00;0.00;0.00;0.00;0.00;0.00;0.00;0.00;0.00;0.00;75.95;0.00;-0.37;0.00;0.00;0.00;0.00;0.00;0.00;-1.55;0.93;-71.61;Running;262.89;57.678392;11.777524;Running;259.09;57.6821;11.826475;Running;36.10;57.576894;11.630865
50;00:00:50;On;259.00;60.0;60.0;0.00;0.00;0.00;0.0;0.0;393.00;14.70;6.81;6.79;7.89;7.91;0.00;0.00;1.03;0.00;7.60;7.50;0.10;0.00;-0.01;7.73;7.73;-0.01;0.10;5.96;-0.01;-0.01;0.00;0.01;0.01;0.03;-0.0;359.93;0.0;359.99;0.0;-0.15;57.682087;11.826347;259.00;7.73;7.73;169.09;0.01;-0.01;-0.01;0.00;0.0;104.0;104.0;95.0;95.0;0.0;0.0;259.09;-2.83;-2.27;-59.13;-77.25;2.11;19.39;-0.00;0.00;0.00;0.00;0.01;-3.68;0.00;0.00;0.00;0.00;0.00;0.00;0.00;0.00;0.00;0.00;0.00;0.00;0.00;0.00;0.00;75.90;0.00;-0.36;0.00;0.00;0.00;0.00;0.00;0.00;-1.55;0.93;-71.71;Running;262.89;57.678384;11.777401;Running;259.09;57.682087;11.826347;Running;36.22;57.57696;11.630949
51;00:00:51;On;259.00;60.0;60.0;0.00;0.00;0.00;0.0;0.0;401.00;14.70;6.81;6.79;7.89;7.91;0.00;0.00;1.03;0.00;7.60;7.50;0.10;0.00;-0.01;7.73;7.73;-0.01;0.10;5.96;-0.01;-0.01;0.00;0.00;-0.01;0.03;-0.0;359.93;0.0;359.99;0.0;-0.15;57.682073;11.826219;259.00;7.73;7.73;169.10;0.01;-0.01;-0.01;0.00;0.0;104.0;104.0;95.0;95.0;0.0;0.0;259.09;-2.83;-2.27;-59.12;-77.18;2.09;20.97;0.01;0.00;0.00;0.00;0.01;-3.70;0.00;0.00;0.00;0.00;0.00;0.00;0.00;0.00;0.00;0.00;0.00;0.00;0.00;0.00;0.00;76.05;0.00;-0.35;0.00;0.00;0.00;0.00;0.00;0.00;-1.55;0.93;-71.68;Running;262.89;57.678375;11.777279;Running;259.09;57.682073;11.826219;Running;36.33;57.577025;11.631034
52;00:00:52;On;259.00;60.0;60.0;0.00;0.00;0.00;0.0;0.0;408.00;14.70;6.82;6.80;7.88;7.90;0.00;0.00;1.03;0.00;7.60;7.50;0.10;0.00;-0.01;7.72;7.72;-0.01;0.10;5.96;-0.01;-0.01;0.00;-0.00;-0.01;0.03;-0.0;359.93;0.0;359.99;0.0;-0.16;57.68206;11.826091;259.00;7.72;7.72;169.10;0.01;-0.01;-0.01;0.00;0.0;104.0;104.0;95.0;95.0;0.0;0.0;259.10;-2.83;-2.27;-59.11;-77.12;2.07;22.43;-0.00;0.00;0.00;0.00;0.01;-3.75;0.00;0.00;0.00;0.00;0.00;0.00;0.00;0.00;0.00;0.00;0.00;0.00;0.00;0.00;0.00;76.11;0.00;-0.35;0.00;0.00;0.00;0.00;0.00;0.00;-1.55;0.93;-71.58;Running;262.88;57.678367;11.777156;Running;259.10;57.68206;11.826091;Running;36.43;57.57709;11.631119
53;00:00:53;On;259.00;60.0;60.0;0.00;0.00;0.00;0.0;0.0;416.00;14.70;6.82;6.80;7.88;7.90;0.00;0.00;1.03;0.00;7.59;7.50;0.10;0.00;-0.01;7.72;7.72;-0.01;0.10;5.95;-0.01;-0.01;0.00;-0.00;0.00;0.03;-0.0;359.94;0.0;359.99;-0.0;-0.17;57.682047;11.825963;259.00;7.72;7.72;169.10;0.01;-0.01;-0.01;0.00;0.0;104.0;104.0;95.0;95.0;0.0;0.0;259.10;-2.83;-2.27;-59.09;-77.05;2.05;23.77;-0.00;0.00;0.00;0.00;0.01;-3.78;0.00;0.00;0.00;0.00;0.00;0.00;0.00;0.00;0.00;0.00;0.00;0.00;0.00;0.00;0.00;76.00;0.00;-0.34;0.00;0.00;0.00;0.00;0.00;0.00;-1.55;0.93;-71.48;Running;262.88;57.678359;11.777033;Running;259.10;57.682047;11.825963;Running;36.53;57.577156;11.631205
54;00:00:54;On;259.00;60.0;60.0;0.00;0.00;0.00;0.0;0.0;424.00;14.70;6.82;6.80;7.88;7.90;0.00;0.00;1.03;0.00;7.59;7.60;0.10;0.00;-0.01;7.72;7.72;-0.01;0.09;5.95;-0.01;-0.01;0.00;0.00;0.01;0.03;-0.0;359.94;0.0;359.99;-0.0;-0.15;57.682033;11.825836;259.00;7.72;7.72;169.10;0.01;-0.01;-0.01;0.00;0.0;104.0;104.0;95.0;95.0;0.0;0.0;259.10;-2.83;-2.26;-59.08;-76.98;2.03;24.99;0.01;0.00;0.00;0.00;0.01;-3.79;0.00;0.00;0.00;0.00;0.00;0.00;0.00;0.00;0.00;0.00;0.00;0.00;0.00;0.00;0.00;76.05;0.00;-0.34;0.00;0.00;0.00;0.00;0.00;0.00;-1.55;0.93;-71.42;Running;262.88;57.678351;11.776911;Running;259.10;57.682033;11.825836;Running;36.61;57.577221;11.631291
55;00:00:55;On;259.00;60.0;60.0;0.00;0.00;0.00;0.0;0.0;432.00;14.70;6.81;6.79;7.89;7.91;0.00;0.00;1.03;0.00;7.59;7.60;0.10;0.00;-0.01;7.72;7.72;-0.01;0.09;5.95;-0.01;-0.01;0.00;0.00;0.00;0.02;-0.0;359.94;0.0;359.99;-0.0;-0.15;57.68202;11.825708;259.00;7.72;7.72;169.10;0.01;-0.01;-0.01;0.00;0.0;104.0;104.0;95.0;95.0;0.0;0.0;259.10;-2.83;-2.26;-59.07;-76.92;2.01;26.10;-0.01;0.00;0.00;0.00;0.01;-3.93;0.00;0.00;0.00;0.00;0.00;0.00;0.00;0.00;0.00;0.00;0.00;0.00;0.00;0.00;0.00;76.20;0.00;-0.33;0.00;0.00;0.00;0.00;0.00;0.00;-1.55;0.93;-71.36;Running;262.88;57.678342;11.776788;Running;259.10;57.68202;11.825708;Running;36.69;57.577286;11.631378
56;00:00:56;On;257.00;60.0;60.0;0.00;0.00;0.00;0.0;0.0;439.00;14.70;6.82;6.80;7.88;7.90;0.00;0.00;1.03;0.00;7.59;7.60;0.10;0.00;-0.01;7.71;7.71;-0.01;0.09;5.95;-0.01;-0.01;0.00;-0.00;-0.02;0.02;-0.0;359.94;0.0;359.99;0.0;-0.16;57.682007;11.82558;259.00;7.71;7.71;169.10;0.01;-0.01;-0.01;0.00;0.0;104.0;104.0;95.0;95.0;0.0;0.0;259.10;-2.82;-2.26;-59.06;-76.86;1.99;26.27;0.00;0.00;0.00;0.00;0.01;-3.95;0.00;0.00;0.00;0.00;0.00;0.00;0.00;0.00;0.00;0.00;0.00;0.00;0.00;0.00;0.00;76.16;0.00;-0.33;0.00;0.00;0.00;0.00;0.00;0.00;-1.54;0.84;-64.36;Running;262.88;57.678334;11.776666;Running;259.10;57.682007;11.82558;Running;36.76;57.577351;11.631466
57;00:00:57;On;255.00;60.0;60.0;0.00;0.00;359.00;0.0;0.0;447.00;14.70;6.82;6.80;7.88;7.90;0.00;0.00;1.03;0.00;7.58;7.60;0.10;0.00;-0.01;7.71;7.71;-0.01;0.09;5.95;-0.01;-0.01;0.00;-0.00;-0.01;0.02;0.0;359.94;0.1;359.99;0.0;-0.16;57.681994;11.825453;259.00;7.71;7.71;169.10;0.01;-0.01;-0.01;359.00;0.0;104.0;104.0;95.0;95.0;0.0;0.0;259.10;-2.82;-2.26;-59.08;-76.80;1.88;44.01;-0.00;0.00;0.00;0.00;0.01;-3.97;0.00;0.00;0.00;0.00;0.00;0.00;0.00;0.00;0.00;0.00;0.00;0.00;0.00;0.00;0.00;76.10;0.00;0.86;0.00;0.00;0.00;0.00;0.00;0.00;-1.60;2.35;-181.28;Running;262.88;57.678326;11.776543;Running;259.10;57.681994;11.825453;Running;36.83;57.577416;11.631553
58;00:00:58;On;251.00;60.0;60.0;0.00;0.00;358.00;0.0;0.0;455.00;14.70;6.82;6.80;7.88;7.90;0.00;0.00;1.03;0.00;7.58;7.60;0.10;0.00;-0.01;7.71;7.71;-0.01;0.08;5.94;-0.01;-0.01;0.00;0.00;0.01;0.02;-0.1;359.93;-0.1;359.99;0.0;-0.16;57.68198;11.825325;259.02;7.71;7.71;169.09;0.01;-0.01;-0.01;358.00;-0.1;104.0;104.0;95.0;95.0;0.0;0.0;259.09;-2.82;-2.27;-59.15;-76.74;1.66;86.86;-0.01;0.00;0.00;0.00;0.01;-3.98;0.00;0.00;0.00;0.00;0.00;0.00;0.00;0.00;0.00;0.00;0.00;0.00;0.00;0.00;0.00;76.26;0.00;0.42;0.00;0.00;0.00;0.00;0.00;0.00;-1.70;4.62;-355.77;Running;262.88;57.678318;11.776421;Running;259.09;57.68198;11.825325;Running;36.88;57.577482;11.631641
59;00:00:59;On;250.00;60.0;60.0;0.00;0.00;356.00;0.0;0.0;462.00;14.70;6.81;6.79;7.89;7.91;0.00;0.00;1.03;0.00;7.58;7.60;0.10;0.00;-0.00;7.71;7.71;-0.00;0.05;5.94;-0.01;-0.01;0.00;0.01;0.01;0.01;-0.3;359.92;-1.1;359.99;0.0;-0.15;57.681967;11.825198;259.06;7.71;7.71;169.09;0.00;-0.02;0.02;356.00;-0.8;104.0;104.0;95.0;95.0;0.0;0.0;259.09;-2.82;-2.28;-59.42;-76.68;0.89;243.88;0.01;0.00;0.00;0.00;0.01;-4.35;0.00;0.00;0.00;0.00;0.00;0.00;0.00;0.00;0.00;0.00;0.00;0.00;0.00;0.00;0.00;76.32;0.00;0.24;0.00;0.00;0.00;0.00;0.00;0.00;-2.38;16.71;-1,286.65;Running;262.88;57.67831;11.776298;Running;259.09;57.681967;11.825198;Running;36.94;57.577547;11.63173
60;00:01:00;On;250.00;60.0;60.0;0.00;0.00;354.00;0.0;0.0;470.00;14.70;6.81;6.79;7.89;7.91;0.00;0.00;1.03;0.00;7.58;7.70;0.10;0.00;0.01;7.71;7.71;0.01;359.98;5.94;-0.01;-0.00;0.01;0.00;-0.01;0.00;-0.8;359.90;-2.1;359.99;0.0;-0.16;57.681954;11.82507;259.11;7.71;7.71;349.06;0.01;-0.03;0.05;354.00;-1.6;104.0;104.0;95.0;95.0;0.0;0.0;259.06;-2.82;-2.30;-60.02;-76.61;-0.76;588.91;-0.00;0.00;0.00;0.00;0.01;-4.36;0.00;0.00;0.00;0.00;0.00;0.00;0.00;0.00;0.00;0.00;0.00;0.00;0.00;0.00;0.00;75.94;0.00;1.47;0.00;0.00;0.00;0.00;0.00;0.00;-3.33;28.83;-2,219.56;Running;262.89;57.678301;11.776176;Running;259.06;57.681954;11.82507;Running;36.98;57.577612;11.631819
61;00:01:01;On;250.00;60.0;60.0;0.00;0.00;352.00;0.0;0.0;478.00;14.70;6.82;6.80;7.88;7.90;0.00;0.00;1.03;0.00;7.58;7.80;0.10;0.00;0.02;7.70;7.70;0.02;359.87;5.94;-0.01;0.01;0.02;-0.00;-0.01;359.96;-1.6;359.85;-3.4;359.99;-0.0;-0.17;57.681941;11.824943;259.20;7.70;7.70;349.02;0.02;-0.06;0.11;352.00;-3.5;104.0;104.0;95.0;95.0;0.0;0.0;259.02;-2.82;-2.33;-60.89;-76.51;-3.15;1,089.38;-0.01;0.00;0.00;0.00;0.01;-4.35;0.00;0.00;0.00;0.00;0.00;0.00;0.00;0.00;0.00;0.00;0.00;0.00;0.00;0.00;0.00;75.84;0.00;3.08;0.00;0.00;0.00;0.00;0.00;0.00;-4.54;40.99;-3,156.52;Running;262.89;57.678293;11.776054;Running;259.02;57.681941;11.824943;Running;37.02;57.577677;11.631908
62;00:01:02;On;250.00;60.0;60.0;0.00;0.00;349.00;0.0;0.0;486.00;14.70;6.82;6.80;7.88;7.90;0.00;0.00;1.03;0.00;7.57;7.90;0.10;0.00;0.05;7.70;7.70;0.05;359.73;5.94;-0.01;0.02;0.02;-0.00;0.01;359.90;-2.2;359.78;-4.3;359.99;-0.0;-0.16;57.681928;11.824815;259.28;7.70;7.70;348.94;0.05;-0.08;0.18;349.00;-5.3;104.0;104.0;95.0;95.0;0.0;0.0;258.94;-2.81;-2.38;-61.98;-76.38;-6.18;1,718.58;0.01;0.00;0.00;0.00;0.01;-4.32;0.00;0.00;0.00;0.00;0.00;0.00;0.00;0.00;0.00;0.00;0.00;0.00;0.00;0.00;0.00;75.39;0.00;4.96;0.00;0.00;0.00;0.00;0.00;0.00;-6.03;53.23;-4,098.99;Running;262.89;57.678285;11.775931;Running;258.94;57.681928;11.824815;Running;37.06;57.577742;11.631998
63;00:01:03;On;250.00;60.0;60.0;0.00;0.00;351.00;0.0;0.0;493.00;14.70;6.81;6.79;7.89;7.91;0.00;0.00;1.03;0.00;7.57;8.10;0.10;0.00;0.07;7.69;7.69;0.07;359.56;5.93;-0.02;0.04;0.03;0.01;0.02;359.82;-2.8;359.71;-4.1;359.99;-0.0;-0.15;57.681915;11.824688;259.33;7.69;7.69;348.83;0.07;-0.11;0.26;351.00;-7.4;104.0;104.0;95.0;95.0;0.0;0.0;258.83;-2.81;-2.43;-63.27;-76.23;-9.75;2,438.83;-0.00;0.00;0.00;0.00;0.01;-4.25;0.00;0.00;0.00;0.00;0.00;0.00;0.00;0.00;0.00;0.00;0.00;0.00;0.00;0.00;0.00;75.02;0.00;6.99;0.00;0.00;0.00;0.00;0.00;0.00;-6.33;55.64;-4,284.23;Running;262.90;57.678277;11.775809;Running;258.83;57.681915;11.824688;Running;37.09;57.577808;11.632088
64;00:01:04;On;250.00;60.0;60.0;0.00;0.00;353.00;0.0;0.0;501.00;14.70;6.81;6.78;7.89;7.92;0.00;0.00;1.03;0.00;7.57;8.20;0.10;0.00;0.08;7.69;7.69;0.08;359.44;5.93;-0.02;0.06;0.02;0.01;0.00;359.70;-2.7;359.66;-2.1;359.99;-0.0;-0.15;57.681902;11.82456;259.30;7.69;7.69;348.70;0.08;-0.13;0.30;353.00;-8.5;104.0;105.0;95.0;95.0;0.0;0.0;258.70;-2.81;-2.46;-64.15;-76.10;-12.26;2,893.91;0.00;0.00;0.00;0.00;0.01;-4.14;0.00;0.00;0.00;0.00;0.00;0.00;0.00;0.00;0.00;0.00;0.00;0.00;0.00;0.00;0.00;74.94;0.00;7.91;0.00;0.00;0.00;0.00;0.00;0.00;-4.98;45.16;-3,477.58;Running;262.90;57.678268;11.775686;Running;258.70;57.681902;11.82456;Running;37.11;57.577873;11.632179
65;00:01:05;On;250.00;60.0;60.0;0.00;0.00;354.00;0.0;0.0;509.00;14.70;6.82;6.80;7.88;7.90;0.00;0.00;1.03;0.00;7.56;8.30;0.10;0.00;0.09;7.68;7.68;0.09;359.35;5.93;-0.02;0.07;0.01;-0.00;-0.01;359.58;-2.1;359.64;0.4;359.99;0.0;-0.16;57.681889;11.824433;259.24;7.68;7.68;348.55;0.09;-0.13;0.32;354.00;-9.1;104.0;105.0;95.0;95.0;0.0;0.0;258.55;-2.80;-2.48;-64.76;-75.98;-14.09;3,123.79;0.00;0.00;0.00;0.00;0.01;-4.07;0.00;0.00;0.00;0.00;0.00;0.00;0.00;0.00;0.00;0.00;0.00;0.00;0.00;0.00;0.00;75.06;0.00;8.16;0.00;0.00;0.00;0.00;0.00;0.00;-4.28;39.05;-3,006.53;Running;262.91;57.67826;11.775564;Running;258.55;57.681889;11.824433;Running;37.13;57.577939;11.632269
66;00:01:06;On;250.00;60.0;60.0;0.00;0.00;354.00;0.0;0.0;516.00;14.70;6.83;6.80;7.87;7.90;0.00;0.00;1.03;0.00;7.56;8.40;0.10;0.00;0.10;7.68;7.68;0.10;359.27;5.92;-0.02;0.08;0.00;-0.01;-0.01;359.46;-1.5;359.67;2.5;359.99;0.0;-0.17;57.681876;11.824306;259.16;7.68;7.68;348.40;0.10;-0.12;0.34;354.00;-9.4;104.0;105.0;95.0;95.0;0.0;0.0;258.40;-2.80;-2.50;-65.32;-75.86;-15.80;3,231.97;-0.01;0.00;0.00;0.00;0.01;-3.81;0.00;0.00;0.00;0.00;0.00;0.00;0.00;0.00;0.00;0.00;0.00;0.00;0.00;0.00;0.00;75.02;0.00;8.20;0.00;0.00;0.00;0.00;0.00;0.00;-3.88;35.23;-2,712.62;Running;262.91;57.678252;11.775442;Running;258.40;57.681876;11.824306;Running;37.15;57.578005;11.63236
67;00:01:07;On;250.00;60.0;60.0;0.00;0.00;355.00;0.0;0.0;524.00;14.70;6.82;6.80;7.88;7.90;0.00;0.00;1.03;0.00;7.55;8.50;0.10;0.00;0.11;7.68;7.68;0.11;359.18;5.92;-0.02;0.09;-0.01;0.00;0.02;359.33;-1.1;359.72;4.0;359.99;0.0;-0.15;57.681863;11.824179;259.09;7.68;7.68;348.24;0.11;-0.12;0.36;355.00;-9.6;104.0;105.0;95.0;95.0;0.0;0.0;258.24;-2.79;-2.53;-65.94;-75.75;-17.65;3,275.98;0.01;0.00;0.00;0.00;0.01;-3.76;0.00;0.00;0.00;0.00;0.00;0.00;0.00;0.00;0.00;0.00;0.00;0.00;0.00;0.00;0.00;75.03;0.00;8.29;0.00;0.00;0.00;0.00;0.00;0.00;-3.63;32.70;-2,518.03;Running;262.92;57.678244;11.77532;Running;258.24;57.681863;11.824179;Running;37.16;57.57807;11.632452
68;00:01:08;On;250.00;60.0;60.0;0.00;0.00;355.00;0.0;0.0;532.00;14.70;6.81;6.79;7.89;7.91;0.00;0.00;1.03;0.00;7.55;8.60;0.10;0.00;0.13;7.67;7.67;0.13;359.06;5.92;-0.02;0.10;-0.01;0.00;0.00;359.21;-0.7;359.78;2.8;359.99;0.0;-0.15;57.68185;11.824052;259.08;7.67;7.67;348.08;0.13;-0.10;0.38;355.00;-9.7;104.0;105.0;95.0;95.0;0.0;0.0;258.08;-2.79;-2.56;-66.86;-75.64;-20.29;3,279.98;0.00;0.00;0.00;0.00;0.01;-3.83;0.00;0.00;0.00;0.00;0.00;0.00;0.00;0.00;0.00;0.00;0.00;0.00;0.00;0.00;0.00;75.12;0.00;8.68;0.00;0.00;0.00;0.00;0.00;0.00;-3.42;30.48;-2,346.68;Running;262.93;57.678236;11.775197;Running;258.08;57.68185;11.824052;Running;37.17;57.578136;11.632543
69;00:01:09;On;250.00;60.0;60.0;0.00;0.00;355.00;0.0;0.0;539.00;14.70;6.81;6.79;7.89;7.91;0.00;0.00;1.03;0.00;7.54;8.80;0.10;0.00;0.15;7.67;7.67;0.15;358.93;5.91;-0.02;0.11;-0.01;0.00;-0.01;359.09;-0.5;359.83;2.4;359.99;-0.0;-0.15;57.681837;11.823925;259.03;7.67;7.67;347.92;0.15;-0.09;0.40;355.00;-9.8;104.0;105.0;95.0;95.0;0.0;0.0;257.92;-2.79;-2.60;-67.78;-75.53;-22.94;3,278.29;-0.00;0.00;0.00;0.00;0.01;-3.67;0.00;0.00;0.00;0.00;0.00;0.00;0.00;0.00;0.00;0.00;0.00;0.00;0.00;0.00;0.00;74.99;0.00;9.06;0.00;0.00;0.00;0.00;0.00;0.00;-3.23;28.36;-2,183.91;Running;262.93;57.678227;11.775075;Running;257.92;57.681837;11.823925;Running;37.17;57.578202;11.632635
70;00:01:10;On;250.00;60.0;60.0;0.00;0.00;356.00;0.0;0.0;547.00;14.70;6.81;6.80;7.89;7.90;0.00;0.00;1.03;0.00;7.54;8.90;0.10;0.00;0.16;7.66;7.66;0.16;358.82;5.91;-0.02;0.13;-0.02;-0.00;-0.01;358.98;-0.4;359.87;2.4;359.99;-0.0;-0.16;57.681824;11.823798;258.97;7.67;7.66;347.75;0.16;-0.08;0.41;356.00;-9.9;104.0;105.0;95.0;95.0;0.0;0.0;257.75;-2.78;-2.63;-68.52;-75.43;-25.12;3,274.03;-0.00;0.00;0.00;0.00;0.01;-3.46;0.00;0.00;0.00;0.00;0.00;0.00;0.00;0.00;0.00;0.00;0.00;0.00;0.00;0.00;0.00;75.11;0.00;9.32;0.00;0.00;0.00;0.00;0.00;0.00;-3.05;26.23;-2,020.06;Running;262.94;57.678219;11.774953;Running;257.75;57.681824;11.823798;Running;37.17;57.578268;11.632727
71;00:01:11;On;250.00;60.0;60.0;0.00;0.00;356.00;0.0;0.0;555.00;14.70;6.82;6.80;7.88;7.90;0.00;0.00;1.03;0.00;7.53;9.00;0.10;0.00;0.17;7.66;7.66;0.17;358.74;5.91;-0.02;0.14;-0.02;0.00;0.01;358.87;-0.3;359.92;3.0;359.99;-0.0;-0.15;57.681811;11.823671;258.88;7.66;7.66;347.59;0.17;-0.07;0.42;356.00;-9.9;104.0;105.0;95.0;95.0;0.0;0.0;257.59;-2.78;-2.65;-69.12;-75.33;-26.92;3,262.99;-0.00;0.00;0.00;0.00;0.01;-3.42;0.00;0.00;0.00;0.00;0.00;0.00;0.00;0.00;0.00;0.00;0.00;0.00;0.00;0.00;0.00;75.07;0.00;9.45;0.00;0.00;0.00;0.00;0.00;0.00;-2.89;24.27;-1,869.07;Running;262.94;57.678211;11.774831;Running;257.59;57.681811;11.823671;Running;37.15;57.578334;11.63282
72;00:01:12;On;250.00;60.0;60.0;0.00;0.00;356.00;0.0;0.0;562.00;14.70;6.82;6.79;7.88;7.91;0.00;0.00;1.03;0.00;7.53;9.00;0.10;0.00;0.18;7.66;7.66;0.18;358.67;5.91;-0.02;0.15;-0.03;0.00;-0.01;358.77;-0.2;359.98;3.7;359.99;-0.0;-0.16;57.681797;11.823545;258.78;7.66;7.66;347.42;0.18;-0.06;0.43;356.00;-9.9;104.0;105.0;95.0;95.0;0.0;0.0;257.42;-2.77;-2.67;-69.61;-75.23;-28.44;3,244.81;0.00;0.00;0.00;0.00;0.01;-3.49;0.00;0.00;0.00;0.00;0.00;0.00;0.00;0.00;0.00;0.00;0.00;0.00;0.00;0.00;0.00;75.06;0.00;9.53;0.00;0.00;0.00;0.00;0.00;0.00;-2.76;22.56;-1,737.42;Running;262.95;57.678203;11.774709;Running;257.42;57.681797;11.823545;Running;37.10;57.578399;11.632913
73;00:01:13;On;248.00;60.0;60.0;0.00;0.00;355.00;0.0;0.0;570.00;14.70;6.81;6.79;7.89;7.91;0.00;0.00;1.03;0.00;7.52;9.10;0.10;0.00;0.19;7.65;7.65;0.19;358.60;5.90;-0.02;0.15;-0.04;0.00;0.01;358.67;-0.1;0.05;4.4;359.99;0.0;-0.16;57.681784;11.823418;258.68;7.66;7.65;347.26;0.19;-0.05;0.44;355.00;-9.9;104.0;105.0;95.0;95.0;0.0;0.0;257.26;-2.77;-2.68;-70.03;-75.14;-29.78;3,218.99;0.00;0.00;0.00;0.00;0.01;-3.46;0.00;0.00;0.00;0.00;0.00;0.00;0.00;0.00;0.00;0.00;0.00;0.00;0.00;0.00;0.00;75.22;0.00;9.61;0.00;0.00;0.00;0.00;0.00;0.00;-2.62;20.80;-1,601.43;Running;262.95;57.678195;11.774586;Running;257.26;57.681784;11.823418;Running;37.00;57.578465;11.633007
74;00:01:14;On;245.00;60.0;60.0;0.00;0.00;353.00;0.0;0.0;578.00;14.70;6.81;6.79;7.89;7.91;0.00;0.00;1.03;0.00;7.52;9.20;0.10;0.00;0.20;7.65;7.65;0.20;358.52;5.90;-0.01;0.16;-0.04;0.00;0.01;358.57;-0.2;0.12;4.1;359.99;0.0;-0.15;57.68177;11.823291;258.61;7.65;7.65;347.09;0.20;-0.04;0.46;353.00;-10.2;104.0;105.0;95.0;95.0;0.0;0.0;257.09;-2.77;-2.71;-70.69;-75.04;-31.76;3,298.41;-0.01;0.00;0.00;0.00;0.02;-3.35;0.00;0.00;0.00;0.00;0.00;0.00;0.00;0.00;0.00;0.00;0.00;0.00;0.00;0.00;0.00;75.03;0.00;10.14;0.00;0.00;0.00;0.00;0.00;0.00;-3.64;33.02;-2,542.52;Running;262.96;57.678186;11.774464;Running;257.09;57.68177;11.823291;Running;36.86;57.578531;11.6331
75;00:01:15;On;244.00;60.0;60.0;0.00;0.00;351.00;0.0;0.0;585.00;14.70;6.81;6.79;7.89;7.91;0.00;0.00;1.03;0.00;7.52;9.30;0.10;0.00;0.23;7.65;7.65;0.23;358.37;5.90;-0.02;0.17;-0.04;0.00;0.00;358.47;-0.8;0.16;2.0;359.99;0.0;-0.15;57.681757;11.823165;258.60;7.65;7.65;346.91;0.23;-0.05;0.52;351.00;-11.4;104.0;105.0;95.0;95.0;0.0;0.0;256.91;-2.76;-2.75;-71.78;-74.91;-34.89;3,599.84;0.01;0.00;0.00;0.00;0.01;-3.70;0.00;0.00;0.00;0.00;0.00;0.00;0.00;0.00;0.00;0.00;0.00;0.00;0.00;0.00;0.00;74.79;0.00;11.47;0.00;0.00;0.00;0.00;0.00;0.00;-4.93;45.28;-3,486.90;Running;262.96;57.678178;11.774342;Running;256.91;57.681757;11.823165;Running;36.68;57.578596;11.633194
76;00:01:16;On;244.00;60.0;60.0;0.00;0.00;350.00;0.0;0.0;593.00;14.70;6.82;6.80;7.88;7.90;0.00;0.00;1.03;0.00;7.51;9.50;0.10;0.00;0.25;7.64;7.64;0.25;358.19;5.89;-0.02;0.19;-0.03;-0.00;-0.01;358.36;-1.4;0.17;-0.1;359.99;-0.0;-0.16;57.681743;11.823039;258.60;7.64;7.64;346.70;0.25;-0.06;0.59;350.00;-13.1;104.0;105.0;95.0;95.0;0.0;0.0;256.70;-2.76;-2.81;-73.18;-74.77;-38.84;4,087.54;-0.00;0.00;0.00;0.00;0.01;-3.23;0.00;0.00;0.00;0.00;0.00;0.00;0.00;0.00;0.00;0.00;0.00;0.00;0.00;0.00;0.00;74.50;0.00;13.31;0.00;0.00;0.00;0.00;0.00;0.00;-6.48;57.62;-4,436.79;Running;262.96;57.67817;11.77422;Running;256.70;57.681743;11.823039;Running;36.47;57.578662;11.633288
77;00:01:17;On;244.00;60.0;60.0;0.00;0.00;352.00;0.0;0.0;600.00;14.70;6.82;6.80;7.88;7.90;0.00;0.00;1.03;0.00;7.51;9.70;0.10;0.00;0.28;7.63;7.63;0.28;357.98;5.89;-0.02;0.21;-0.03;0.00;0.01;358.23;-2.1;0.16;-0.7;359.99;-0.0;-0.15;57.681729;11.822912;258.55;7.64;7.63;346.47;0.28;-0.07;0.65;352.00;-14.5;104.0;105.0;95.0;95.0;0.0;0.0;256.47;-2.75;-2.86;-74.56;-74.61;-42.82;4,603.04;0.00;0.00;0.00;0.00;0.01;-3.04;0.00;0.00;0.00;0.00;0.00;0.00;0.00;0.00;0.00;0.00;0.00;0.00;0.00;0.00;0.00;74.21;0.00;15.32;0.00;0.00;0.00;0.00;0.00;0.00;-5.48;50.07;-3,855.45;Running;262.97;57.678162;11.774098;Running;256.47;57.681729;11.822912;Running;36.24;57.578728;11.633381
78;00:01:18;On;244.00;60.0;60.0;0.00;0.00;353.00;0.0;0.0;608.00;14.70;6.81;6.79;7.89;7.91;0.00;0.00;1.03;0.00;7.50;9.90;0.10;0.00;0.29;7.63;7.63;0.29;357.85;5.89;-0.02;0.23;-0.03;0.00;0.00;358.08;-1.8;0.16;0.4;359.99;-0.0;-0.15;57.681716;11.822786;258.41;7.63;7.63;346.22;0.29;-0.07;0.68;353.00;-15.1;104.0;105.0;95.0;95.0;0.0;0.0;256.22;-2.75;-2.89;-75.46;-74.46;-45.53;4,858.57;-0.00;0.00;0.00;0.00;0.01;-2.76;0.00;0.00;0.00;0.00;0.00;0.00;0.00;0.00;0.00;0.00;0.00;0.00;0.00;0.00;0.00;74.28;0.00;16.20;0.00;0.00;0.00;0.00;0.00;0.00;-4.48;41.55;-3,199.71;Running;262.97;57.678154;11.773976;Running;256.22;57.681716;11.822786;Running;36.00;57.578794;11.633474
79;00:01:19;On;244.00;60.0;60.0;0.00;0.00;354.00;0.0;0.0;616.00;14.70;6.80;6.78;7.90;7.92;0.00;0.00;1.03;0.00;7.49;10.00;0.10;0.00;0.31;7.62;7.62;0.31;357.75;5.88;-0.02;0.24;-0.05;0.01;-0.00;357.93;-1.4;0.18;1.8;359.99;-0.0;-0.15;57.681702;11.82266;258.26;7.63;7.62;345.97;0.31;-0.07;0.70;354.00;-15.5;104.0;105.0;95.0;95.0;0.0;0.0;255.97;-2.74;-2.92;-76.12;-74.32;-47.63;4,963.44;-0.01;0.00;0.00;0.00;0.00;-2.42;0.00;0.00;0.00;0.00;0.00;0.00;0.00;0.00;0.00;0.00;0.00;0.00;0.00;0.00;0.00;74.15;0.00;16.34;0.00;0.00;0.00;0.00;0.00;0.00;-3.92;36.25;-2,791.29;Running;262.97;57.678146;11.773854;Running;255.97;57.681702;11.82266;Running;35.74;57.578861;11.633567
80;00:01:20;On;244.00;60.0;60.0;0.00;0.00;355.00;0.0;0.0;623.00;14.70;6.81;6.79;7.89;7.91;0.00;0.00;1.03;0.00;7.48;10.10;0.10;0.00;0.32;7.62;7.62;0.32;357.65;5.88;-0.02;0.26;-0.06;-0.00;-0.01;357.78;-0.9;0.22;3.1;359.99;0.0;-0.16;57.681688;11.822535;258.09;7.63;7.62;345.71;0.32;-0.06;0.71;355.00;-15.5;104.0;105.0;95.0;95.0;0.0;0.0;255.71;-2.74;-2.94;-76.55;-74.18;-49.52;4,986.05;0.01;0.00;0.00;0.00;-0.00;-1.84;0.00;0.00;0.00;0.00;0.00;0.00;0.00;0.00;0.00;0.00;0.00;0.00;0.00;0.00;0.00;74.37;0.00;16.35;0.00;0.00;0.00;0.00;0.00;0.00;-3.54;32.34;-2,490.19;Running;262.98;57.678137;11.773732;Running;255.71;57.681688;11.822535;Running;35.50;57.578927;11.633659
81;00:01:21;On;244.00;60.0;60.0;0.00;0.00;355.00;0.0;0.0;631.00;14.70;6.82;6.80;7.88;7.90;0.00;0.00;1.03;0.00;7.48;10.20;0.10;0.00;0.33;7.61;7.61;0.33;357.56;5.87;-0.02;0.27;-0.07;-0.00;0.01;357.64;-0.6;0.28;3.9;359.99;0.0;-0.16;57.681673;11.822409;257.92;7.62;7.61;345.45;0.33;-0.05;0.72;355.00;-15.5;104.0;105.0;95.0;95.0;0.0;0.0;255.45;-2.73;-2.96;-76.95;-74.05;-51.37;4,964.33;-0.00;0.00;0.00;0.00;0.01;-1.32;0.00;0.00;0.00;0.00;0.00;0.00;0.00;0.00;0.00;0.00;0.00;0.00;0.00;0.00;0.00;74.38;0.00;16.32;0.00;0.00;0.00;0.00;0.00;0.00;-3.28;29.44;-2,266.81;Running;262.98;57.678129;11.77361;Running;255.45;57.681673;11.822409;Running;35.27;57.578995;11.633751
82;00:01:22;On;244.00;60.0;60.0;0.00;0.00;356.00;0.0;0.0;639.00;14.70;6.82;6.80;7.88;7.90;0.00;0.00;1.03;0.00;7.47;10.30;0.10;0.00;0.34;7.61;7.61;0.34;357.47;5.87;-0.02;0.28;-0.07;0.00;0.00;357.51;-0.3;0.35;4.5;359.99;0.0;-0.15;57.681659;11.822283;257.76;7.62;7.61;345.19;0.34;-0.03;0.73;356.00;-15.5;104.0;105.0;95.0;95.0;0.0;0.0;255.19;-2.72;-2.98;-77.35;-73.92;-53.51;4,913.08;0.00;0.00;0.00;0.00;0.00;-0.62;0.00;0.00;0.00;0.00;0.00;0.00;0.00;0.00;0.00;0.00;0.00;0.00;0.00;0.00;0.00;74.36;0.00;16.36;0.00;0.00;0.00;0.00;0.00;0.00;-3.06;26.90;-2,071.15;Running;262.98;57.678121;11.773488;Running;255.19;57.681659;11.822283;Running;35.07;57.579062;11.633843
83;00:01:23;On;244.00;60.0;60.0;0.00;0.00;356.00;0.0;0.0;646.00;14.70;6.81;6.79;7.89;7.91;0.00;0.00;1.03;0.00;7.46;10.40;0.10;0.00;0.35;7.60;7.60;0.35;357.38;5.86;-0.02;0.29;-0.08;0.01;0.01;357.38;-0.2;0.42;4.4;359.99;0.0;-0.15;57.681644;11.822158;257.58;7.61;7.60;344.94;0.35;-0.02;0.74;356.00;-15.4;104.0;105.0;95.0;95.0;0.0;0.0;254.94;-2.72;-3.00;-77.73;-73.79;-56.00;4,840.31;-0.01;0.00;0.00;0.00;-0.00;-0.08;0.00;0.00;0.00;0.00;0.00;0.00;0.00;0.00;0.00;0.00;0.00;0.00;0.00;0.00;0.00;74.53;0.00;16.45;0.00;0.00;0.00;0.00;0.00;0.00;-2.85;24.35;-1,874.72;Running;262.98;57.678113;11.773366;Running;254.94;57.681644;11.822158;Running;34.89;57.57913;11.633934
84;00:01:24;On;244.00;60.0;60.0;0.00;0.00;356.00;0.0;0.0;654.00;14.70;6.81;6.79;7.89;7.91;0.00;0.00;1.03;0.00;7.45;10.40;0.10;0.00;0.36;7.60;7.60;0.36;357.30;5.86;-0.02;0.29;-0.09;0.01;-0.00;357.26;-0.0;0.49;4.5;359.99;-0.0;-0.15;57.68163;11.822033;257.41;7.61;7.60;344.68;0.36;-0.01;0.75;356.00;-15.3;104.0;105.0;95.0;95.0;0.0;0.0;254.68;-2.71;-3.02;-78.08;-73.66;-58.34;4,764.67;0.00;0.00;0.00;0.00;-0.00;0.46;0.00;0.00;0.00;0.00;0.00;0.00;0.00;0.00;0.00;0.00;0.00;0.00;0.00;0.00;0.00;74.62;0.00;16.54;0.00;0.00;0.00;0.00;0.00;0.00;-2.68;22.09;-1,701.30;Running;262.99;57.678105;11.773244;Running;254.68;57.68163;11.822033;Running;34.73;57.579197;11.634025
85;00:01:25;On;244.00;60.0;60.0;0.00;0.00;357.00;0.0;0.0;661.00;14.70;6.81;6.79;7.89;7.91;0.00;0.00;1.03;0.00;7.45;10.50;0.10;0.00;0.37;7.59;7.59;0.37;357.22;5.86;-0.02;0.30;-0.09;0.00;-0.01;357.15;0.0;0.56;4.0;359.99;-0.0;-0.15;57.681614;11.821908;257.23;7.60;7.59;344.42;0.37;0.00;0.76;357.00;-15.2;104.0;105.0;95.0;95.0;0.0;0.0;254.42;-2.70;-3.03;-78.39;-73.54;-60.49;4,685.36;0.01;0.00;0.00;0.00;-0.01;0.95;0.00;0.00;0.00;0.00;0.00;0.00;0.00;0.00;0.00;0.00;0.00;0.00;0.00;0.00;0.00;74.59;0.00;16.59;0.00;0.00;0.00;0.00;0.00;0.00;-2.50;19.65;-1,512.94;Running;262.99;57.678097;11.773122;Running;254.42;57.681614;11.821908;Running;34.60;57.579266;11.634116
86;00:01:26;On;244.00;60.0;60.0;0.00;0.00;357.00;0.0;0.0;669.00;14.70;6.81;6.79;7.89;7.91;0.00;0.00;1.03;0.00;7.44;10.60;0.10;0.00;0.38;7.59;7.59;0.38;357.15;5.85;-0.02;0.31;-0.10;0.00;-0.01;357.04;0.1;0.63;3.7;359.99;-0.0;-0.15;57.681599;11.821783;257.04;7.60;7.59;344.17;0.38;0.02;0.77;357.00;-15.1;104.0;105.0;95.0;95.0;0.0;0.0;254.17;-2.70;-3.05;-78.65;-73.42;-62.42;4,605.03;-0.00;0.00;0.00;0.00;-0.01;1.47;0.00;0.00;0.00;0.00;0.00;0.00;0.00;0.00;0.00;0.00;0.00;0.00;0.00;0.00;0.00;74.57;0.00;16.61;0.00;0.00;0.00;0.00;0.00;0.00;-2.35;17.49;-1,347.02;Running;262.99;57.678089;11.773;Running;254.17;57.681599;11.821783;Running;34.47;57.579334;11.634207
87;00:01:27;On;244.00;60.0;60.0;0.00;0.00;358.00;0.0;0.0;677.00;14.70;6.82;6.80;7.88;7.90;0.00;0.00;1.03;0.00;7.43;10.70;0.10;0.00;0.39;7.58;7.58;0.39;357.09;5.85;-0.01;0.32;-0.10;-0.00;-0.00;356.95;0.1;0.68;3.3;359.99;-0.0;-0.16;57.681584;11.821658;256.85;7.59;7.58;343.92;0.39;0.03;0.77;358.00;-15.0;104.0;105.0;95.0;95.0;0.0;0.0;253.92;-2.69;-3.06;-78.86;-73.31;-64.12;4,522.96;-0.00;0.00;0.00;0.00;-0.01;1.92;0.00;0.00;0.00;0.00;0.00;0.00;0.00;0.00;0.00;0.00;0.00;0.00;0.00;0.00;0.00;74.61;0.00;16.60;0.00;0.00;0.00;0.00;0.00;0.00;-2.21;15.24;-1,173.77;Running;262.99;57.67808;11.772878;Running;253.92;57.681584;11.821658;Running;34.36;57.579402;11.634298
